stop_id,stop_name,stop_code,stop_lat,stop_lon,location_type,stop_url
546,"CORUÑA y GRAL JULIO AMADEO ROLETTI",546,-34.872405,-56.146758,0,"https://m.montevideo.gub.uy/comoir/parada?numero=546"
547,"CORUÑA y JUAN FRANCISCO MARTINEZ",547,-34.871348,-56.147629,0,"https://m.montevideo.gub.uy/comoir/parada?numero=547"
548,"CORUÑA - SAN ANTONIO",548,-34.871776,-56.147365,0,"https://m.montevideo.gub.uy/comoir/parada?numero=548"
549,"CORUÑA - AGACES",549,-34.869687,-56.14903,0,"https://m.montevideo.gub.uy/comoir/parada?numero=549"
550,"CORUÑA - AGACES",550,-34.869455,-56.149304,0,"https://m.montevideo.gub.uy/comoir/parada?numero=550"
551,"COMERCIO - JUAN JACOBO ROUSSEAU",551,-34.874812,-56.144297,0,"https://m.montevideo.gub.uy/comoir/parada?numero=551"
553,"AV DR AMERICO RICALDONI - AV FEDERICO R VIDIELLA",553,-34.892023,-56.154605,0,"https://m.montevideo.gub.uy/comoir/parada?numero=553"
554,"AV DR AMERICO RICALDONI y CIRC INT SIN DENOM",554,-34.893292,-56.152243,0,"https://m.montevideo.gub.uy/comoir/parada?numero=554"
555,"ING EDUARDO GARCIA DE ZUÑIGA - PATRIA",555,-34.9187,-56.164937,0,"https://m.montevideo.gub.uy/comoir/parada?numero=555"
556,"BV GRAL ARTIGAS - PALMAR",556,-34.90141,-56.164404,0,"https://m.montevideo.gub.uy/comoir/parada?numero=556"
557,"AV LUIS BATLLE BERRES - YUQUERI",557,-34.789375,-56.35308,0,"https://m.montevideo.gub.uy/comoir/parada?numero=557"
558,"AV LUIS BATLLE BERRES - QUARAHY",558,-34.791139,-56.351797,0,"https://m.montevideo.gub.uy/comoir/parada?numero=558"
559,"AV LUIS BATLLE BERRES - LA BARRA",559,-34.788078,-56.353858,0,"https://m.montevideo.gub.uy/comoir/parada?numero=559"
560,"CNO PAJAS BLANCAS - SBRE DE PASO",560,-34.854574,-56.343451,0,"https://m.montevideo.gub.uy/comoir/parada?numero=560"
561,"CNO PAJAS BLANCAS - SBRE DE PASO",561,-34.854562,-56.343314,0,"https://m.montevideo.gub.uy/comoir/parada?numero=561"
562,"CNO LOS CAMALOTES y DEL TRANVIA A LA BARRA",562,-34.806012,-56.316883,0,"https://m.montevideo.gub.uy/comoir/parada?numero=562"
563,"PARAGUAY - SANTA FE",563,-34.88291,-56.194986,0,"https://m.montevideo.gub.uy/comoir/parada?numero=563"
564,"PARAGUAY - GRAL FAUSTO AGUILAR",564,-34.884679,-56.19477,0,"https://m.montevideo.gub.uy/comoir/parada?numero=564"
565,"PARAGUAY - GRAL PACHECO",565,-34.886562,-56.194582,0,"https://m.montevideo.gub.uy/comoir/parada?numero=565"
566,"PARAGUAY - GUATEMALA",566,-34.892136,-56.193995,0,"https://m.montevideo.gub.uy/comoir/parada?numero=566"
567,"AV GRAL RONDEAU - PANAMA",567,-34.891009,-56.192904,0,"https://m.montevideo.gub.uy/comoir/parada?numero=567"
568,"AV GRAL RONDEAU - CNEL FRANCISCO TAJES",568,-34.887859,-56.193219,0,"https://m.montevideo.gub.uy/comoir/parada?numero=568"
569,"AV GRAL RONDEAU - GRAL FRANCISCO CARABALLO",569,-34.886024,-56.19341,0,"https://m.montevideo.gub.uy/comoir/parada?numero=569"
570,"PARAGUAY - NUEVA YORK",570,-34.89691,-56.193482,0,"https://m.montevideo.gub.uy/comoir/parada?numero=570"
573,"FLORIDA y AV URUGUAY",573,-34.903379,-56.199622,0,"https://m.montevideo.gub.uy/comoir/parada?numero=573"
574,"SAN JOSE - ANDES",574,-34.907394,-56.198255,0,"https://m.montevideo.gub.uy/comoir/parada?numero=574"
575,"SAN JOSE - JULIO HERRERA Y OBES",575,-34.90718,-56.194979,0,"https://m.montevideo.gub.uy/comoir/parada?numero=575"
576,"SAN JOSE - RIO NEGRO",576,-34.907121,-56.193773,0,"https://m.montevideo.gub.uy/comoir/parada?numero=576"
577,"SAN JOSE - HECTOR GUTIERREZ RUIZ",577,-34.906917,-56.191511,0,"https://m.montevideo.gub.uy/comoir/parada?numero=577"
578,"SAN JOSE - ZELMAR MICHELINI",578,-34.906834,-56.190405,0,"https://m.montevideo.gub.uy/comoir/parada?numero=578"
579,"SAN JOSE - DR AQUILES R LANZA",579,-34.906655,-56.188136,0,"https://m.montevideo.gub.uy/comoir/parada?numero=579"
582,"CNO TOMKINSON y AV LUIS BATLLE BERRES",582,-34.835771,-56.271853,0,"https://m.montevideo.gub.uy/comoir/parada?numero=582"
583,"CNO TOMKINSON - CNO CIBILS",583,-34.837886,-56.274467,0,"https://m.montevideo.gub.uy/comoir/parada?numero=583"
584,"CNO TOMKINSON y AV CIBILS",584,-34.83862,-56.275114,0,"https://m.montevideo.gub.uy/comoir/parada?numero=584"
585,"CNO TOMKINSON - LOS PLATANOS",585,-34.842679,-56.279929,0,"https://m.montevideo.gub.uy/comoir/parada?numero=585"
586,"CNO TOMKINSON - LOS PLATANOS",586,-34.842752,-56.279877,0,"https://m.montevideo.gub.uy/comoir/parada?numero=586"
587,"CNO TOMKINSON - LOS OLMOS",587,-34.844607,-56.282163,0,"https://m.montevideo.gub.uy/comoir/parada?numero=587"
588,"CNO TOMKINSON - LOS OLMOS",588,-34.84509,-56.282528,0,"https://m.montevideo.gub.uy/comoir/parada?numero=588"
589,"CNO TOMKINSON - CHACRA NUEVA",589,-34.846007,-56.283866,0,"https://m.montevideo.gub.uy/comoir/parada?numero=589"
590,"CNO TOMKINSON - CHACRA NUEVA",590,-34.846594,-56.284287,0,"https://m.montevideo.gub.uy/comoir/parada?numero=590"
591,"CNO TOMKINSON - CNO MANUEL M FLORES",591,-34.847876,-56.285941,0,"https://m.montevideo.gub.uy/comoir/parada?numero=591"
592,"CNO TOMKINSON - CNO MANUEL M FLORES",592,-34.848483,-56.286486,0,"https://m.montevideo.gub.uy/comoir/parada?numero=592"
595,"CNO MANUEL M FLORES - SBRE DE 6 MTS",595,-34.845538,-56.291217,0,"https://m.montevideo.gub.uy/comoir/parada?numero=595"
596,"CNO MANUEL M FLORES - SBRE DE 6 MTS",596,-34.845541,-56.291283,0,"https://m.montevideo.gub.uy/comoir/parada?numero=596"
598,"CNO MANUEL M FLORES - CNO DE LA CAPILLA",598,-34.842069,-56.298066,0,"https://m.montevideo.gub.uy/comoir/parada?numero=598"
599,"CNO MANUEL M FLORES - CNO DE LA CAPILLA",599,-34.842282,-56.297891,0,"https://m.montevideo.gub.uy/comoir/parada?numero=599"
600,"CNO MANUEL M FLORES - CNO DEL JEFE",600,-34.840794,-56.300872,0,"https://m.montevideo.gub.uy/comoir/parada?numero=600"
601,"CNO MANUEL M FLORES - CNO ZENDOTE",601,-34.838372,-56.305902,0,"https://m.montevideo.gub.uy/comoir/parada?numero=601"
602,"CNO MANUEL M FLORES - CNO ZENDOTE",602,-34.838401,-56.305956,0,"https://m.montevideo.gub.uy/comoir/parada?numero=602"
603,"CNO MANUEL M FLORES - SBRE DE 10 MTS",603,-34.835314,-56.312199,0,"https://m.montevideo.gub.uy/comoir/parada?numero=603"
604,"CNO MANUEL M FLORES - SBRE DE 10 MTS",604,-34.835314,-56.312364,0,"https://m.montevideo.gub.uy/comoir/parada?numero=604"
605,"CNO MANUEL M FLORES - SBRE DE 10 MTS",605,-34.834298,-56.314232,0,"https://m.montevideo.gub.uy/comoir/parada?numero=605"
606,"CNO MANUEL M FLORES - SBRE DE 10 MTS",606,-34.834227,-56.314456,0,"https://m.montevideo.gub.uy/comoir/parada?numero=606"
609,"CNO MANUEL M FLORES - CNO ANAYA",609,-34.831708,-56.319182,0,"https://m.montevideo.gub.uy/comoir/parada?numero=609"
610,"CNO MANUEL M FLORES - CNO GORI",610,-34.82343,-56.335606,0,"https://m.montevideo.gub.uy/comoir/parada?numero=610"
613,"CNO SANGUINETTI - CNO MANUEL M FLORES",613,-34.818231,-56.346899,0,"https://m.montevideo.gub.uy/comoir/parada?numero=613"
614,"CNO SANGUINETTI - CNO GDOR ANTONIO OLAGUER FELIU",614,-34.825371,-56.352133,0,"https://m.montevideo.gub.uy/comoir/parada?numero=614"
615,"CNO SANGUINETTI y CNO O´HIGGINS",615,-34.827947,-56.354175,0,"https://m.montevideo.gub.uy/comoir/parada?numero=615"
616,"CNO SANGUINETTI - CNO O´HIGGINS",616,-34.829605,-56.35551,0,"https://m.montevideo.gub.uy/comoir/parada?numero=616"
617,"CNO SANGUINETTI - CNO O´HIGGINS",617,-34.830128,-56.35573,0,"https://m.montevideo.gub.uy/comoir/parada?numero=617"
620,"CNO SANGUINETTI - CNO A PUNTA ESPINILLO",620,-34.834261,-56.358886,0,"https://m.montevideo.gub.uy/comoir/parada?numero=620"
621,"CNO SANGUINETTI - CNO A PUNTA ESPINILLO",621,-34.834498,-56.358952,0,"https://m.montevideo.gub.uy/comoir/parada?numero=621"
623,"CNO SANGUINETTI - CNO PAJAS BLANCAS",623,-34.839181,-56.362479,0,"https://m.montevideo.gub.uy/comoir/parada?numero=623"
625,"CNO SANGUINETTI - CNO VECINAL",625,-34.848449,-56.36935,0,"https://m.montevideo.gub.uy/comoir/parada?numero=625"
626,"CNO SANGUINETTI - CNO VECINAL",626,-34.85208,-56.372018,0,"https://m.montevideo.gub.uy/comoir/parada?numero=626"
627,"CNO SANGUINETTI - CARLIN BERTOLOTTI",627,-34.854688,-56.373919,0,"https://m.montevideo.gub.uy/comoir/parada?numero=627"
628,"CNO SANGUINETTI - CARLIN BERTOLOTTI",628,-34.856054,-56.37497,0,"https://m.montevideo.gub.uy/comoir/parada?numero=628"
629,"CNO SANGUINETTI - CARLIN BERTOLOTTI",629,-34.853652,-56.373181,0,"https://m.montevideo.gub.uy/comoir/parada?numero=629"
630,"CNO PAJAS BLANCAS - CNO CONDE",630,-34.84553,-56.361333,0,"https://m.montevideo.gub.uy/comoir/parada?numero=630"
631,"CNO PAJAS BLANCAS - CNO DE LOS ALVAREZ",631,-34.847443,-56.357567,0,"https://m.montevideo.gub.uy/comoir/parada?numero=631"
632,"CNO PAJAS BLANCAS - CNO DE LOS ALVAREZ",632,-34.847518,-56.357355,0,"https://m.montevideo.gub.uy/comoir/parada?numero=632"
633,"CNO PAJAS BLANCAS - CNO ECHEGARAY",633,-34.848999,-56.354637,0,"https://m.montevideo.gub.uy/comoir/parada?numero=633"
634,"CNO PAJAS BLANCAS - CNO ECHEGARAY",634,-34.849009,-56.354388,0,"https://m.montevideo.gub.uy/comoir/parada?numero=634"
635,"CNO PAJAS BLANCAS - CNO ELHORDOY",635,-34.850736,-56.351008,0,"https://m.montevideo.gub.uy/comoir/parada?numero=635"
636,"CNO PAJAS BLANCAS - CNO ELHORDOY",636,-34.850738,-56.350893,0,"https://m.montevideo.gub.uy/comoir/parada?numero=636"
637,"CNO PAJAS BLANCAS - CNO JUAN TORORA",637,-34.852165,-56.348177,0,"https://m.montevideo.gub.uy/comoir/parada?numero=637"
638,"CNO PAJAS BLANCAS - CNO JUAN TORORA",638,-34.852199,-56.348052,0,"https://m.montevideo.gub.uy/comoir/parada?numero=638"
639,"CNO PAJAS BLANCAS - AV CAP LEAL DE IBARRA",639,-34.861088,-56.330567,0,"https://m.montevideo.gub.uy/comoir/parada?numero=639"
640,"AV CAP LEAL DE IBARRA - CNO PAJAS BLANCAS",640,-34.861243,-56.330898,0,"https://m.montevideo.gub.uy/comoir/parada?numero=640"
641,"CNO PAJAS BLANCAS - AV CAP LEAL DE IBARRA",641,-34.860885,-56.331301,0,"https://m.montevideo.gub.uy/comoir/parada?numero=641"
642,"AV CAP LEAL DE IBARRA y CAP NAV ESTANISLAO COURAD",642,-34.863012,-56.332706,0,"https://m.montevideo.gub.uy/comoir/parada?numero=642"
643,"AV CAP LEAL DE IBARRA y JACINTO ALTOLAGUIRRE",643,-34.863504,-56.333038,0,"https://m.montevideo.gub.uy/comoir/parada?numero=643"
644,"AV CAP LEAL DE IBARRA y CAP PEDRO DE MESA Y CASTRO",644,-34.865885,-56.334709,0,"https://m.montevideo.gub.uy/comoir/parada?numero=644"
645,"AV CAP LEAL DE IBARRA - CAP PEDRO DE MESA Y CASTRO",645,-34.865878,-56.334619,0,"https://m.montevideo.gub.uy/comoir/parada?numero=645"
646,"AV CAP LEAL DE IBARRA - CAP PEDRO DE MESA Y CASTRO",646,-34.866687,-56.335545,0,"https://m.montevideo.gub.uy/comoir/parada?numero=646"
647,"CAP PEDRO DE MESA Y CASTRO y JUAN JOSE ELIZALDE",647,-34.867985,-56.334186,0,"https://m.montevideo.gub.uy/comoir/parada?numero=647"
648,"CAP PEDRO DE MESA Y CASTRO - RAMON CLAIRAC",648,-34.869689,-56.331028,0,"https://m.montevideo.gub.uy/comoir/parada?numero=648"
649,"CAP PEDRO DE MESA Y CASTRO - FRANCISCO GIL LEMOS",649,-34.868335,-56.332513,0,"https://m.montevideo.gub.uy/comoir/parada?numero=649"
650,"CAP PEDRO DE MESA Y CASTRO - AV CAP LEAL DE IBARRA",650,-34.867273,-56.335277,0,"https://m.montevideo.gub.uy/comoir/parada?numero=650"
651,"AV CAP LEAL DE IBARRA y BERNARDO BONAVIA",651,-34.868336,-56.336793,0,"https://m.montevideo.gub.uy/comoir/parada?numero=651"
652,"AV CAP LEAL DE IBARRA y RAMON FERNANDEZ VILLEGAS",652,-34.868889,-56.337162,0,"https://m.montevideo.gub.uy/comoir/parada?numero=652"
653,"CNO PAJAS BLANCAS - JUAN JOSE ELIZALDE",653,-34.861748,-56.329501,0,"https://m.montevideo.gub.uy/comoir/parada?numero=653"
654,"CNO PAJAS BLANCAS - SBRE DE PASO DE 10 MTS",654,-34.861876,-56.329063,0,"https://m.montevideo.gub.uy/comoir/parada?numero=654"
655,"CNO PAJAS BLANCAS y DR HUGO EDUARDO GATTI",655,-34.864087,-56.324944,0,"https://m.montevideo.gub.uy/comoir/parada?numero=655"
656,"CNO PAJAS BLANCAS y DR HUGO EDUARDO GATTI",656,-34.864161,-56.324617,0,"https://m.montevideo.gub.uy/comoir/parada?numero=656"
657,"CNO PAJAS BLANCAS y CNO PEDRO P SANGUINETTO",657,-34.866716,-56.319825,0,"https://m.montevideo.gub.uy/comoir/parada?numero=657"
658,"CNO PAJAS BLANCAS - CNO PEDRO P SANGUINETTO",658,-34.866933,-56.31924,0,"https://m.montevideo.gub.uy/comoir/parada?numero=658"
659,"CNO PAJAS BLANCAS y CNO TOMKINSON",659,-34.867921,-56.317494,0,"https://m.montevideo.gub.uy/comoir/parada?numero=659"
660,"LUIS DE MEDINA TORRES - CAP DOMINGO CHAURRI",660,-34.871574,-56.31719,0,"https://m.montevideo.gub.uy/comoir/parada?numero=660"
661,"LUIS DE MEDINA TORRES - CNO SANFUENTES",661,-34.875308,-56.317863,0,"https://m.montevideo.gub.uy/comoir/parada?numero=661"
662,"CNO SANFUENTES - CNO ANTARTIDA URUGUAYA",662,-34.875829,-56.317027,0,"https://m.montevideo.gub.uy/comoir/parada?numero=662"
663,"LUIS DE MEDINA TORRES - CAP DOMINGO CHAURRI",663,-34.873478,-56.316598,0,"https://m.montevideo.gub.uy/comoir/parada?numero=663"
664,"LUIS DE MEDINA TORRES - CAP DOMINGO CHAURRI",664,-34.873355,-56.316664,0,"https://m.montevideo.gub.uy/comoir/parada?numero=664"
665,"LUIS DE MEDINA TORRES - CAP DOMINGO CHAURRI",665,-34.871588,-56.317121,0,"https://m.montevideo.gub.uy/comoir/parada?numero=665"
666,"LUIS DE MEDINA TORRES - CNO PAJAS BLANCAS",666,-34.869369,-56.317114,0,"https://m.montevideo.gub.uy/comoir/parada?numero=666"
667,"LUIS DE MEDINA TORRES y CNO PAJAS BLANCAS",667,-34.868851,-56.317212,0,"https://m.montevideo.gub.uy/comoir/parada?numero=667"
668,"CNO TOMKINSON - CNO PAJAS BLANCAS",668,-34.867733,-56.317041,0,"https://m.montevideo.gub.uy/comoir/parada?numero=668"
669,"LUIS DE MEDINA TORRES - CNO TOMKINSON",669,-34.868111,-56.317133,0,"https://m.montevideo.gub.uy/comoir/parada?numero=669"
670,"CNO TOMKINSON - LUIS DE MEDINA TORRES",670,-34.864789,-56.314694,0,"https://m.montevideo.gub.uy/comoir/parada?numero=670"
671,"CNO TOMKINSON - LUIS DE MEDINA TORRES",671,-34.864426,-56.314571,0,"https://m.montevideo.gub.uy/comoir/parada?numero=671"
673,"CNO TOMKINSON - CNO SALABERRY",673,-34.861978,-56.307622,0,"https://m.montevideo.gub.uy/comoir/parada?numero=673"
675,"CNO TOMKINSON - CNO O´HIGGINS",675,-34.857805,-56.300693,0,"https://m.montevideo.gub.uy/comoir/parada?numero=675"
676,"CNO O´HIGGINS - CNO DE LA CAPILLA",676,-34.855761,-56.304944,0,"https://m.montevideo.gub.uy/comoir/parada?numero=676"
677,"CNO O´HIGGINS - CNO DE LA CAPILLA",677,-34.854838,-56.306724,0,"https://m.montevideo.gub.uy/comoir/parada?numero=677"
678,"CNO O´HIGGINS - SBRE DE PASO",678,-34.85292,-56.310485,0,"https://m.montevideo.gub.uy/comoir/parada?numero=678"
679,"CNO O´HIGGINS - CNO LEONCIO LOPEZ",679,-34.850517,-56.315216,0,"https://m.montevideo.gub.uy/comoir/parada?numero=679"
680,"CNO O´HIGGINS - CNO LEONCIO LOPEZ",680,-34.849593,-56.316996,0,"https://m.montevideo.gub.uy/comoir/parada?numero=680"
681,"CNO O´HIGGINS - CNO ZENDOTE",681,-34.847525,-56.321026,0,"https://m.montevideo.gub.uy/comoir/parada?numero=681"
682,"CNO O´HIGGINS - SBRE DE 10 MTS",682,-34.845872,-56.324312,0,"https://m.montevideo.gub.uy/comoir/parada?numero=682"
683,"CNO O´HIGGINS - CNO VECINAL",683,-34.843138,-56.329652,0,"https://m.montevideo.gub.uy/comoir/parada?numero=683"
684,"CNO O´HIGGINS - CNO GARCES",684,-34.841165,-56.333519,0,"https://m.montevideo.gub.uy/comoir/parada?numero=684"
685,"CNO O´HIGGINS - CNO ELHORDOY",685,-34.838208,-56.339251,0,"https://m.montevideo.gub.uy/comoir/parada?numero=685"
686,"CNO O´HIGGINS - CNO ELHORDOY",686,-34.836786,-56.341998,0,"https://m.montevideo.gub.uy/comoir/parada?numero=686"
687,"CNO O´HIGGINS - CNO DE LOS ALVAREZ",687,-34.833874,-56.347699,0,"https://m.montevideo.gub.uy/comoir/parada?numero=687"
688,"CNO O´HIGGINS - CNO CONDE",688,-34.832914,-56.349651,0,"https://m.montevideo.gub.uy/comoir/parada?numero=688"
689,"CNO O´HIGGINS y CNO SANGUINETTI",689,-34.829982,-56.355298,0,"https://m.montevideo.gub.uy/comoir/parada?numero=689"
690,"CNO O´HIGGINS - CNO CONDE",690,-34.832866,-56.349831,0,"https://m.montevideo.gub.uy/comoir/parada?numero=690"
691,"CNO O´HIGGINS - CNO DE LOS ALVAREZ",691,-34.833967,-56.347777,0,"https://m.montevideo.gub.uy/comoir/parada?numero=691"
692,"CNO O´HIGGINS - SBRE DE PASO",692,-34.83556,-56.344577,0,"https://m.montevideo.gub.uy/comoir/parada?numero=692"
693,"CNO O´HIGGINS - CNO ELHORDOY",693,-34.836782,-56.342239,0,"https://m.montevideo.gub.uy/comoir/parada?numero=693"
694,"CNO O´HIGGINS - CNO ELHORDOY",694,-34.838199,-56.339464,0,"https://m.montevideo.gub.uy/comoir/parada?numero=694"
695,"CNO O´HIGGINS - CNO GARCES",695,-34.841111,-56.333782,0,"https://m.montevideo.gub.uy/comoir/parada?numero=695"
696,"CNO O´HIGGINS - CNO VECINAL",696,-34.84321,-56.329703,0,"https://m.montevideo.gub.uy/comoir/parada?numero=696"
697,"CNO O´HIGGINS - SBRE DE 10 MTS",697,-34.845957,-56.324308,0,"https://m.montevideo.gub.uy/comoir/parada?numero=697"
698,"CNO O´HIGGINS - CNO ZENDOTE",698,-34.847601,-56.321099,0,"https://m.montevideo.gub.uy/comoir/parada?numero=698"
700,"CNO O´HIGGINS - CNO EL COLORADO",700,-34.84927,-56.317818,0,"https://m.montevideo.gub.uy/comoir/parada?numero=700"
701,"CNO O´HIGGINS - CNO LEONCIO LOPEZ",701,-34.850443,-56.315571,0,"https://m.montevideo.gub.uy/comoir/parada?numero=701"
702,"CNO O´HIGGINS - SDA DE PASO",702,-34.851629,-56.313086,0,"https://m.montevideo.gub.uy/comoir/parada?numero=702"
703,"CNO O´HIGGINS - SBRE DE PASO",703,-34.852911,-56.310709,0,"https://m.montevideo.gub.uy/comoir/parada?numero=703"
704,"CNO O´HIGGINS - CNO DE LA CAPILLA",704,-34.854789,-56.307062,0,"https://m.montevideo.gub.uy/comoir/parada?numero=704"
705,"CNO O´HIGGINS - CNO DE LA CAPILLA",705,-34.855801,-56.305065,0,"https://m.montevideo.gub.uy/comoir/parada?numero=705"
706,"CNO TOMKINSON - RUTA NAL 1",706,-34.856558,-56.298401,0,"https://m.montevideo.gub.uy/comoir/parada?numero=706"
707,"CNO TOMKINSON - SBRE",707,-34.856522,-56.298509,0,"https://m.montevideo.gub.uy/comoir/parada?numero=707"
708,"CNO TOMKINSON - SBRE",708,-34.854807,-56.29543,0,"https://m.montevideo.gub.uy/comoir/parada?numero=708"
709,"CNO TOMKINSON - SBRE",709,-34.853645,-56.293668,0,"https://m.montevideo.gub.uy/comoir/parada?numero=709"
710,"CNO TOMKINSON - CNO BAJO DE LA PETIZA",710,-34.852191,-56.291072,0,"https://m.montevideo.gub.uy/comoir/parada?numero=710"
711,"CNO TOMKINSON - CNO MANUEL FLORES",711,-34.850361,-56.288606,0,"https://m.montevideo.gub.uy/comoir/parada?numero=711"
712,"CNO TOMKINSON - RUTA NAL 1",712,-34.850192,-56.288651,0,"https://m.montevideo.gub.uy/comoir/parada?numero=712"
713,"CNO DE LA REDENCION - CNO MELILLA",713,-34.80546,-56.253948,0,"https://m.montevideo.gub.uy/comoir/parada?numero=713"
714,"CNO DE LA REDENCION - CNO MELILLA",714,-34.804085,-56.25681,0,"https://m.montevideo.gub.uy/comoir/parada?numero=714"
715,"CNO DE LA REDENCION - CNO MELILLA",715,-34.803916,-56.257297,0,"https://m.montevideo.gub.uy/comoir/parada?numero=715"
716,"CNO DE LA REDENCION - RUTA NAL 5",716,-34.802387,-56.260508,0,"https://m.montevideo.gub.uy/comoir/parada?numero=716"
717,"CNO DE LA REDENCION - RUTA NAL 5",717,-34.802444,-56.260599,0,"https://m.montevideo.gub.uy/comoir/parada?numero=717"
718,"CNO DE LA REDENCION - CNO FOLLE YLLA",718,-34.799833,-56.266122,0,"https://m.montevideo.gub.uy/comoir/parada?numero=718"
719,"CNO DE LA REDENCION - CNO HAMILTON",719,-34.796775,-56.272924,0,"https://m.montevideo.gub.uy/comoir/parada?numero=719"
720,"CNO DE LA REDENCION - CNO LOS NARANJOS",720,-34.7946,-56.277837,0,"https://m.montevideo.gub.uy/comoir/parada?numero=720"
721,"CNO DE LA REDENCION - CNO LOS NARANJOS",721,-34.794568,-56.278174,0,"https://m.montevideo.gub.uy/comoir/parada?numero=721"
722,"CNO DE LA REDENCION - CNO DE LOS ORIENTALES",722,-34.790097,-56.287838,0,"https://m.montevideo.gub.uy/comoir/parada?numero=722"
723,"CNO DE LA REDENCION - CNO DE LOS ORIENTALES",723,-34.789983,-56.288101,0,"https://m.montevideo.gub.uy/comoir/parada?numero=723"
724,"CNO DE LA REDENCION - CNO LOS CAMALOTES",724,-34.785885,-56.291587,0,"https://m.montevideo.gub.uy/comoir/parada?numero=724"
725,"CNO DE LA REDENCION - CNO LOS CAMALOTES",725,-34.78468,-56.29277,0,"https://m.montevideo.gub.uy/comoir/parada?numero=725"
726,"CNO DE LA REDENCION - CALLE 8 MTS",726,-34.778588,-56.295636,0,"https://m.montevideo.gub.uy/comoir/parada?numero=726"
727,"CNO DE LA REDENCION - CALLE 8 MTS",727,-34.778533,-56.295867,0,"https://m.montevideo.gub.uy/comoir/parada?numero=727"
730,"CNO DE LA REDENCION - CNO PEIXOTO",730,-34.774248,-56.297709,0,"https://m.montevideo.gub.uy/comoir/parada?numero=730"
731,"CNO DE LA REDENCION - CNO MAINUMBY",731,-34.771747,-56.29849,0,"https://m.montevideo.gub.uy/comoir/parada?numero=731"
732,"CNO DE LA REDENCION - CNO MAINUMBY",732,-34.771664,-56.298631,0,"https://m.montevideo.gub.uy/comoir/parada?numero=732"
733,"CNO DE LA REDENCION - CNO MAINUMBY",733,-34.769415,-56.298966,0,"https://m.montevideo.gub.uy/comoir/parada?numero=733"
734,"CNO DE LA REDENCION - CNO DE LAS CHIRCAS",734,-34.76934,-56.299081,0,"https://m.montevideo.gub.uy/comoir/parada?numero=734"
735,"CNO DE LA REDENCION - CNO DR FRANCISCO AZAROLA",735,-34.765712,-56.299633,0,"https://m.montevideo.gub.uy/comoir/parada?numero=735"
736,"CNO DE LA REDENCION - CNO DR FRANCISCO AZAROLA",736,-34.765239,-56.29979,0,"https://m.montevideo.gub.uy/comoir/parada?numero=736"
737,"CNO DE LA REDENCION - CNO LAS MULITAS",737,-34.761803,-56.300305,0,"https://m.montevideo.gub.uy/comoir/parada?numero=737"
738,"CNO DE LA REDENCION - CNO SERE",738,-34.755926,-56.305286,0,"https://m.montevideo.gub.uy/comoir/parada?numero=738"
739,"CNO DE LA REDENCION - CNO SERE",739,-34.75557,-56.305798,0,"https://m.montevideo.gub.uy/comoir/parada?numero=739"
740,"CNO DE LA REDENCION - CNO SERE",740,-34.752456,-56.308566,0,"https://m.montevideo.gub.uy/comoir/parada?numero=740"
741,"CNO DE LA REDENCION - CNO LOS PIRINCHOS",741,-34.748826,-56.311573,0,"https://m.montevideo.gub.uy/comoir/parada?numero=741"
742,"CNO DE LA REDENCION - CNO LOS PIRINCHOS",742,-34.748864,-56.311652,0,"https://m.montevideo.gub.uy/comoir/parada?numero=742"
743,"CNO DE LA REDENCION - CNO LOS PIRINCHOS",743,-34.745956,-56.314256,0,"https://m.montevideo.gub.uy/comoir/parada?numero=743"
744,"CNO DE LA REDENCION - CNO FELIX BUXAREO",744,-34.741006,-56.318382,0,"https://m.montevideo.gub.uy/comoir/parada?numero=744"
745,"CNO FELIX BUXAREO - CNO DE LA REDENCION",745,-34.740411,-56.318238,0,"https://m.montevideo.gub.uy/comoir/parada?numero=745"
746,"CNO FELIX BUXAREO - CNO LA TOTORA",746,-34.734836,-56.308404,0,"https://m.montevideo.gub.uy/comoir/parada?numero=746"
747,"CNO FELIX BUXAREO - CNO LA TOTORA",747,-34.734213,-56.307753,0,"https://m.montevideo.gub.uy/comoir/parada?numero=747"
748,"CNO FELIX BUXAREO - CNO LA TOTORA",748,-34.732245,-56.304049,0,"https://m.montevideo.gub.uy/comoir/parada?numero=748"
749,"CNO FELIX BUXAREO - CNO LA TOTORA",749,-34.732064,-56.304134,0,"https://m.montevideo.gub.uy/comoir/parada?numero=749"
750,"CNO FELIX BUXAREO y CNO EL CANELON",750,-34.731069,-56.302176,0,"https://m.montevideo.gub.uy/comoir/parada?numero=750"
751,"CNO FELIX BUXAREO y CNO EL CANELON",751,-34.731029,-56.302213,0,"https://m.montevideo.gub.uy/comoir/parada?numero=751"
752,"CNO FELIX BUXAREO y CNO EL CANELON",752,-34.728241,-56.297469,0,"https://m.montevideo.gub.uy/comoir/parada?numero=752"
753,"CNO FELIX BUXAREO y CNO EL CANELON",753,-34.728117,-56.297335,0,"https://m.montevideo.gub.uy/comoir/parada?numero=753"
754,"CNO FELIX BUXAREO y CNO EL CANELON",754,-34.726175,-56.293929,0,"https://m.montevideo.gub.uy/comoir/parada?numero=754"
755,"CNO FELIX BUXAREO y CNO EL CANELON",755,-34.726145,-56.294,0,"https://m.montevideo.gub.uy/comoir/parada?numero=755"
756,"CNO FELIZ BUXAREO - CNO MELILLA",756,-34.724208,-56.290489,0,"https://m.montevideo.gub.uy/comoir/parada?numero=756"
757,"CNO FELIX BUXAREO y CNO MELILLA",757,-34.724103,-56.290578,0,"https://m.montevideo.gub.uy/comoir/parada?numero=757"
758,"CNO FELIX BUXAREO - CNO MELILLA",758,-34.723309,-56.289091,0,"https://m.montevideo.gub.uy/comoir/parada?numero=758"
759,"CNO MELILLA - CNO LOS PIRINCHOS",759,-34.726214,-56.287144,0,"https://m.montevideo.gub.uy/comoir/parada?numero=759"
760,"CNO MELILLA - CNO LOS PIRINCHOS",760,-34.728935,-56.286675,0,"https://m.montevideo.gub.uy/comoir/parada?numero=760"
761,"CNO MELILLA - CNO LOS PIRINCHOS",761,-34.729368,-56.286384,0,"https://m.montevideo.gub.uy/comoir/parada?numero=761"
762,"CNO MELILLA - CNO LOS PIRINCHOS",762,-34.732228,-56.286018,0,"https://m.montevideo.gub.uy/comoir/parada?numero=762"
763,"CNO MELILLA - CNO LOS PIRINCHOS",763,-34.732151,-56.285823,0,"https://m.montevideo.gub.uy/comoir/parada?numero=763"
764,"CNO MELILLA - CNO SERE",764,-34.738664,-56.282638,0,"https://m.montevideo.gub.uy/comoir/parada?numero=764"
765,"CNO MELILLA - CNO SERE",765,-34.738707,-56.282318,0,"https://m.montevideo.gub.uy/comoir/parada?numero=765"
766,"CNO MELILLA - CNO SERE",766,-34.741234,-56.281278,0,"https://m.montevideo.gub.uy/comoir/parada?numero=766"
767,"CNO MELILLA - CNO SERE",767,-34.741427,-56.28093,0,"https://m.montevideo.gub.uy/comoir/parada?numero=767"
768,"CNO MELILLA - CNO DR FRANCISCO AZAROLA",768,-34.750741,-56.275677,0,"https://m.montevideo.gub.uy/comoir/parada?numero=768"
769,"CNO MELILLA - CNO DR FRANCISCO AZAROLA",769,-34.751397,-56.275066,0,"https://m.montevideo.gub.uy/comoir/parada?numero=769"
770,"CNO DR FRANCISCO AZAROLA - CNO MELILLA",770,-34.75103,-56.275642,0,"https://m.montevideo.gub.uy/comoir/parada?numero=770"
771,"CNO DR FRANCISCO AZAROLA - CALLE FICTICIA",771,-34.754512,-56.281508,0,"https://m.montevideo.gub.uy/comoir/parada?numero=771"
772,"CNO DR FRANCISCO AZAROLA - CNO INAMBU",772,-34.759951,-56.290522,0,"https://m.montevideo.gub.uy/comoir/parada?numero=772"
773,"CNO DE LA REDENCION - CNO DR FRANCISCO AZAROLA",773,-34.765138,-56.299055,0,"https://m.montevideo.gub.uy/comoir/parada?numero=773"
774,"CNO MELILLA - CNO NICOLAS SANTORO",774,-34.753512,-56.273813,0,"https://m.montevideo.gub.uy/comoir/parada?numero=774"
775,"CNO MELILLA - CNO NICOLAS SANTORO",775,-34.753257,-56.274214,0,"https://m.montevideo.gub.uy/comoir/parada?numero=775"
776,"CNO MELILLA - CNO PEIXOTO",776,-34.761126,-56.270594,0,"https://m.montevideo.gub.uy/comoir/parada?numero=776"
777,"CNO MELILLA - CNO PEIXOTO",777,-34.761271,-56.270316,0,"https://m.montevideo.gub.uy/comoir/parada?numero=777"
779,"CNO FAUQUET - CNO MELILLA",779,-34.764641,-56.269396,0,"https://m.montevideo.gub.uy/comoir/parada?numero=779"
780,"CNO FAUQUET - RUTA NAL 5",780,-34.766768,-56.266802,0,"https://m.montevideo.gub.uy/comoir/parada?numero=780"
782,"CNO MELILLA - RUTA NAL 5",782,-34.771985,-56.267521,0,"https://m.montevideo.gub.uy/comoir/parada?numero=782"
783,"CNO MELILLA - RUTA NAL 5",783,-34.772024,-56.26733,0,"https://m.montevideo.gub.uy/comoir/parada?numero=783"
784,"CNO MELILLA - RUTA NAL PERIMETRAL WILSON FERREIRA",784,-34.775344,-56.26653,0,"https://m.montevideo.gub.uy/comoir/parada?numero=784"
785,"CNO MELILLA - RUTA NAL PERIMETRAL WILSON FERREIRA",785,-34.775475,-56.266326,0,"https://m.montevideo.gub.uy/comoir/parada?numero=785"
786,"CNO MELILLA - CNO PASCUAL HARRIAGUE",786,-34.778864,-56.264916,0,"https://m.montevideo.gub.uy/comoir/parada?numero=786"
787,"CNO MELILLA - CNO PASCUAL HARRIAGUE",787,-34.779007,-56.264648,0,"https://m.montevideo.gub.uy/comoir/parada?numero=787"
788,"CNO MELILLA - CNO CNEL AV JAIME MEREGALLI",788,-34.782748,-56.262832,0,"https://m.montevideo.gub.uy/comoir/parada?numero=788"
789,"CNO MELILLA - CNO CNEL AV JAIME MEREGALLI",789,-34.782886,-56.262635,0,"https://m.montevideo.gub.uy/comoir/parada?numero=789"
791,"PEABODY - CNO MELILLA",791,-34.798331,-56.256657,0,"https://m.montevideo.gub.uy/comoir/parada?numero=791"
792,"CNO MELILLA - PEABODY",792,-34.798517,-56.256721,0,"https://m.montevideo.gub.uy/comoir/parada?numero=792"
793,"CNO MELILLA - VERAGUAS",793,-34.800147,-56.255958,0,"https://m.montevideo.gub.uy/comoir/parada?numero=793"
794,"CNO MELILLA - PINTA",794,-34.802227,-56.255105,0,"https://m.montevideo.gub.uy/comoir/parada?numero=794"
795,"CNO MELILLA - CNO DE LA REDENCION",795,-34.805233,-56.253796,0,"https://m.montevideo.gub.uy/comoir/parada?numero=795"
796,"CNO MELILLA - NIÑA",796,-34.810785,-56.252423,0,"https://m.montevideo.gub.uy/comoir/parada?numero=796"
797,"CNO MELILLA - ANTONIO RUBIO",797,-34.810296,-56.252128,0,"https://m.montevideo.gub.uy/comoir/parada?numero=797"
800,"CNO MELILLA - CNO LUIS EDUARDO PEREZ",800,-34.813208,-56.251892,0,"https://m.montevideo.gub.uy/comoir/parada?numero=800"
801,"CNO MELILLA - CNO LUIS EDUARDO PEREZ",801,-34.813958,-56.251666,0,"https://m.montevideo.gub.uy/comoir/parada?numero=801"
802,"CNO DEL TROPERO y RBLA COSTANERA",802,-34.839985,-56.404819,0,"https://m.montevideo.gub.uy/comoir/parada?numero=802"
803,"CNO DEL TROPERO - CNO DEL ALAMBRADOR",803,-34.835954,-56.399392,0,"https://m.montevideo.gub.uy/comoir/parada?numero=803"
804,"CNO DEL TROPERO - CNO DEL ALAMBRADOR",804,-34.835938,-56.399624,0,"https://m.montevideo.gub.uy/comoir/parada?numero=804"
805,"CNO DEL TROPERO - CNO DEL ALAMBRADOR",805,-34.834421,-56.397366,0,"https://m.montevideo.gub.uy/comoir/parada?numero=805"
806,"CNO DEL TROPERO - CNO DEL ALAMBRADOR",806,-34.834345,-56.397334,0,"https://m.montevideo.gub.uy/comoir/parada?numero=806"
807,"CNO DEL TROPERO - CNO EL CANELON",807,-34.832534,-56.394978,0,"https://m.montevideo.gub.uy/comoir/parada?numero=807"
808,"CNO DEL TROPERO - CNO EL CANELON",808,-34.832463,-56.394888,0,"https://m.montevideo.gub.uy/comoir/parada?numero=808"
809,"CNO DEL TROPERO - CNO DEL LEÑADOR",809,-34.830282,-56.391906,0,"https://m.montevideo.gub.uy/comoir/parada?numero=809"
810,"CNO DEL TROPERO - CNO DEL LEÑADOR",810,-34.830257,-56.392054,0,"https://m.montevideo.gub.uy/comoir/parada?numero=810"
811,"CNO DEL TROPERO - SEBASTIAN REBELLA",811,-34.825389,-56.385506,0,"https://m.montevideo.gub.uy/comoir/parada?numero=811"
812,"CNO DEL TROPERO - SEBASTIAN REBELLA",812,-34.825223,-56.385345,0,"https://m.montevideo.gub.uy/comoir/parada?numero=812"
813,"CNO DEL TROPERO - CNO DEL DOMADOR",813,-34.823254,-56.382709,0,"https://m.montevideo.gub.uy/comoir/parada?numero=813"
814,"CNO DEL TROPERO - CNO DEL DOMADOR",814,-34.823058,-56.382629,0,"https://m.montevideo.gub.uy/comoir/parada?numero=814"
815,"CNO DEL TROPERO - CNO DEL DOMADOR",815,-34.821453,-56.380363,0,"https://m.montevideo.gub.uy/comoir/parada?numero=815"
816,"CNO DEL TROPERO y CNO DEL DOMADOR",816,-34.821115,-56.380118,0,"https://m.montevideo.gub.uy/comoir/parada?numero=816"
817,"CNO DEL TROPERO - EL GUASQUERO",817,-34.819585,-56.377879,0,"https://m.montevideo.gub.uy/comoir/parada?numero=817"
818,"CNO A PUNTA ESPINILLO - CNO DEL TROPERO",818,-34.81949,-56.37759,0,"https://m.montevideo.gub.uy/comoir/parada?numero=818"
819,"CNO A PUNTA ESPINILLO - CNO GRAL ESC BASILIO MUÑOZ",819,-34.822226,-56.375305,0,"https://m.montevideo.gub.uy/comoir/parada?numero=819"
820,"CNO A PUNTA ESPINILLO - CNO GRAL ESC BASILIO MUÑOZ",820,-34.822284,-56.375208,0,"https://m.montevideo.gub.uy/comoir/parada?numero=820"
821,"CNO A PUNTA ESPINILLO - CNO GRAL ESC BASILIO MUÑOZ",821,-34.824451,-56.373405,0,"https://m.montevideo.gub.uy/comoir/parada?numero=821"
822,"CNO A PUNTA ESPINILLO - CNO GRAL ESC BASILIO MUÑOZ",822,-34.82462,-56.373221,0,"https://m.montevideo.gub.uy/comoir/parada?numero=822"
823,"CNO A PUNTA ESPINILLO - 17 MTS",823,-34.827222,-56.369742,0,"https://m.montevideo.gub.uy/comoir/parada?numero=823"
824,"CNO A PUNTA ESPINILLO - 17 MTS",824,-34.827286,-56.36962,0,"https://m.montevideo.gub.uy/comoir/parada?numero=824"
825,"CNO A PUNTA ESPINILLO - 17 MTS",825,-34.829557,-56.366222,0,"https://m.montevideo.gub.uy/comoir/parada?numero=825"
826,"CNO A PUNTA ESPINILLO - 17 MTS",826,-34.829622,-56.366102,0,"https://m.montevideo.gub.uy/comoir/parada?numero=826"
827,"CNO A PUNTA ESPINILLO - 17 MTS",827,-34.830768,-56.364371,0,"https://m.montevideo.gub.uy/comoir/parada?numero=827"
828,"CNO A PUNTA ESPINILLO y 17 MTS",828,-34.830694,-56.364349,0,"https://m.montevideo.gub.uy/comoir/parada?numero=828"
830,"CNO A PUNTA ESPINILLO - CNO SANGUINETTI",830,-34.832515,-56.361662,0,"https://m.montevideo.gub.uy/comoir/parada?numero=830"
831,"AV CIBILS y PRIMERA AL NORTE",831,-34.851078,-56.271295,0,"https://m.montevideo.gub.uy/comoir/parada?numero=831"
833,"AV CIBILS y FRANCISCO DE GOYA",833,-34.849532,-56.271608,0,"https://m.montevideo.gub.uy/comoir/parada?numero=833"
834,"AV CIBILS y FRANCISCO DE GOYA",834,-34.848899,-56.27191,0,"https://m.montevideo.gub.uy/comoir/parada?numero=834"
835,"CNO CIBILS - FRANCISCO DE QUEVEDO",835,-34.84758,-56.272172,0,"https://m.montevideo.gub.uy/comoir/parada?numero=835"
836,"AV CIBILS y FRANCISCO DE QUEVEDO",836,-34.847381,-56.272334,0,"https://m.montevideo.gub.uy/comoir/parada?numero=836"
837,"AV CIBILS y MIRUNGA",837,-34.845364,-56.27282,0,"https://m.montevideo.gub.uy/comoir/parada?numero=837"
838,"LOS NOGALES y CALLE 2",838,-34.844156,-56.273902,0,"https://m.montevideo.gub.uy/comoir/parada?numero=838"
839,"LOS NOGALES y PSJE LOS ALELIES",839,-34.844526,-56.274641,0,"https://m.montevideo.gub.uy/comoir/parada?numero=839"
840,"LOS NOGALES - LAS CAMELIAS",840,-34.846521,-56.276432,0,"https://m.montevideo.gub.uy/comoir/parada?numero=840"
841,"LOS NOGALES - LAS CAMELIAS",841,-34.846706,-56.276584,0,"https://m.montevideo.gub.uy/comoir/parada?numero=841"
842,"LOS NOGALES - LAS LILAS",842,-34.847628,-56.277938,0,"https://m.montevideo.gub.uy/comoir/parada?numero=842"
843,"LOS NOGALES y LAS LILAS",843,-34.847835,-56.278046,0,"https://m.montevideo.gub.uy/comoir/parada?numero=843"
844,"LOS NOGALES - LOS CEDROS",844,-34.849499,-56.279332,0,"https://m.montevideo.gub.uy/comoir/parada?numero=844"
845,"FRANCISCO DE GOYA - LOS CEDROS",845,-34.849718,-56.279112,0,"https://m.montevideo.gub.uy/comoir/parada?numero=845"
847,"FRANCISCO DE GOYA - ALFONSO X EL SABIO",847,-34.849422,-56.275114,0,"https://m.montevideo.gub.uy/comoir/parada?numero=847"
848,"CNO CIBILS - COSTANERA PARQUE TOMKINSON",848,-34.842404,-56.273696,0,"https://m.montevideo.gub.uy/comoir/parada?numero=848"
849,"CNO CIBILS - COSTANERA PARQUE TOMKINSON",849,-34.842077,-56.273878,0,"https://m.montevideo.gub.uy/comoir/parada?numero=849"
850,"AV CIBILS y DR CESAR CARLOS BIANCO",850,-34.84067,-56.27418,0,"https://m.montevideo.gub.uy/comoir/parada?numero=850"
851,"AV CIBILS y DR CESAR CARLOS BIANCO",851,-34.840276,-56.274443,0,"https://m.montevideo.gub.uy/comoir/parada?numero=851"
852,"AV CIBILS y CNO TOMKINSON",852,-34.8389,-56.274703,0,"https://m.montevideo.gub.uy/comoir/parada?numero=852"
853,"CNO TOMKINSON - FRANCISCA AZNAR DE ARTIGAS",853,-34.834816,-56.270279,0,"https://m.montevideo.gub.uy/comoir/parada?numero=853"
854,"CNO TOMKINSON - RBLA PANTANOSO",854,-34.833669,-56.268461,0,"https://m.montevideo.gub.uy/comoir/parada?numero=854"
855,"CNO TOMKINSON - PUBLICA",855,-34.831481,-56.265383,0,"https://m.montevideo.gub.uy/comoir/parada?numero=855"
856,"CNO TOMKINSON y CNO ENCARNACION BENITEZ",856,-34.829263,-56.262166,0,"https://m.montevideo.gub.uy/comoir/parada?numero=856"
857,"CNO DE LA CHIMENEA y JOSEFA PALACIOS",857,-34.830505,-56.259805,0,"https://m.montevideo.gub.uy/comoir/parada?numero=857"
858,"CNO PASO DE LA ARENA y CNO DE LA CHIMENEA",858,-34.832781,-56.257667,0,"https://m.montevideo.gub.uy/comoir/parada?numero=858"
859,"JULIAN LAGUNA - EDUARDO PAZ AGUIRRE",859,-34.836103,-56.256794,0,"https://m.montevideo.gub.uy/comoir/parada?numero=859"
860,"EDUARDO PAZ AGUIRRE y JOSE LLUPES",860,-34.835935,-56.255921,0,"https://m.montevideo.gub.uy/comoir/parada?numero=860"
861,"JULIAN LAGUNA y CNO PASO DE LA ARENA",861,-34.834793,-56.258899,0,"https://m.montevideo.gub.uy/comoir/parada?numero=861"
862,"CNO PASO DE LA ARENA y SANTA LUCIA",862,-34.833347,-56.25823,0,"https://m.montevideo.gub.uy/comoir/parada?numero=862"
863,"CNO DE LA CHIMENEA y JOSEFA PALACIOS",863,-34.830602,-56.259594,0,"https://m.montevideo.gub.uy/comoir/parada?numero=863"
864,"CNO TOMKINSON y CNO DE LA CHIMENEA",864,-34.829003,-56.261292,0,"https://m.montevideo.gub.uy/comoir/parada?numero=864"
866,"CNO TOMKINSON - FRANCISCA AZNAR DE ARTIGAS",866,-34.834466,-56.269902,0,"https://m.montevideo.gub.uy/comoir/parada?numero=866"
868,"AV LUIS BATLLE BERRES - MANUEL ARTIGAS",868,-34.83739,-56.268426,0,"https://m.montevideo.gub.uy/comoir/parada?numero=868"
869,"AV LUIS BATLLE BERRES y MARTIN ARTIGAS",869,-34.837839,-56.266696,0,"https://m.montevideo.gub.uy/comoir/parada?numero=869"
870,"AV LUIS BATLLE BERRES - EDUARDO PAZ AGUIRRE",870,-34.838868,-56.262247,0,"https://m.montevideo.gub.uy/comoir/parada?numero=870"
871,"AV LUIS BATLLE BERRES - PINTIN CASTELLANOS",871,-34.839971,-56.259904,0,"https://m.montevideo.gub.uy/comoir/parada?numero=871"
872,"AV LUIS BATLLE BERRES - BERNARDO ABATE",872,-34.841277,-56.257945,0,"https://m.montevideo.gub.uy/comoir/parada?numero=872"
873,"AV LUIS BATLLE BERRES y CNO DE LAS TROPAS",873,-34.843062,-56.255303,0,"https://m.montevideo.gub.uy/comoir/parada?numero=873"
874,"AV LUIS BATLLE BERRES y CNO DE LAS TROPAS",874,-34.842822,-56.255378,0,"https://m.montevideo.gub.uy/comoir/parada?numero=874"
875,"AV LUIS BATLLE BERRES - CALLE 4",875,-34.841795,-56.256997,0,"https://m.montevideo.gub.uy/comoir/parada?numero=875"
876,"AV LUIS BATLLE BERRES - PINTIN CASTELLANOS",876,-34.84001,-56.259656,0,"https://m.montevideo.gub.uy/comoir/parada?numero=876"
877,"AV LUIS BATLLE BERRES y CNO PASO DE LA ARENA",877,-34.838602,-56.262832,0,"https://m.montevideo.gub.uy/comoir/parada?numero=877"
878,"EDUARDO PAZ AGUIRRE - ABREVADERO",878,-34.837538,-56.261446,0,"https://m.montevideo.gub.uy/comoir/parada?numero=878"
879,"EDUARDO PAZ AGUIRRE y CARLOS DE LA VEGA",879,-34.836947,-56.259066,0,"https://m.montevideo.gub.uy/comoir/parada?numero=879"
880,"EDUARDO PAZ AGUIRRE - JULIAN LAGUNA",880,-34.836247,-56.256704,0,"https://m.montevideo.gub.uy/comoir/parada?numero=880"
881,"EDUARDO PAZ AGUIRRE - CARLOS DE LA VEGA",881,-34.836732,-56.258778,0,"https://m.montevideo.gub.uy/comoir/parada?numero=881"
882,"EDUARDO PAZ AGUIRRE - CNO PASO DE LA ARENA",882,-34.837901,-56.263079,0,"https://m.montevideo.gub.uy/comoir/parada?numero=882"
883,"EDUARDO PAZ AGUIRRE - AV LUIS BATLLE BERRES",883,-34.837978,-56.26314,0,"https://m.montevideo.gub.uy/comoir/parada?numero=883"
884,"EDUARDO PAZ AGUIRRE y ABREVADERO",884,-34.83733,-56.261013,0,"https://m.montevideo.gub.uy/comoir/parada?numero=884"
885,"AV LUIS BATLLE BERRES - MARTIN ARTIGAS",885,-34.837833,-56.266231,0,"https://m.montevideo.gub.uy/comoir/parada?numero=885"
886,"AV LUIS BATLLE BERRES - CNEL SANTIAGO ARTIGAS",886,-34.837446,-56.267967,0,"https://m.montevideo.gub.uy/comoir/parada?numero=886"
888,"AV LUIS BATLLE BERRES y LAS TUNAS",888,-34.853373,-56.23695,0,"https://m.montevideo.gub.uy/comoir/parada?numero=888"
889,"AV LUIS BATLLE BERRES - GOWLAND",889,-34.854485,-56.234948,0,"https://m.montevideo.gub.uy/comoir/parada?numero=889"
890,"AV LUIS BATLLE BERRES y ANTONIO ZUBILLAGA",890,-34.855526,-56.233103,0,"https://m.montevideo.gub.uy/comoir/parada?numero=890"
891,"AV LUIS BATLLE BERRES y JUAN C MOLINA",891,-34.856749,-56.231016,0,"https://m.montevideo.gub.uy/comoir/parada?numero=891"
892,"AV LUIS BATLLE BERRES y JOSE MARMOL",892,-34.857764,-56.229209,0,"https://m.montevideo.gub.uy/comoir/parada?numero=892"
893,"AV LUIS BATLLE BERRES y LAURELES",893,-34.858454,-56.227795,0,"https://m.montevideo.gub.uy/comoir/parada?numero=893"
894,"BV MANUEL HERRERA Y OBES - JOSE MARMOL",894,-34.856855,-56.227958,0,"https://m.montevideo.gub.uy/comoir/parada?numero=894"
895,"BV MANUEL HERRERA Y OBES y GREGORIO CAMINO",895,-34.855137,-56.231005,0,"https://m.montevideo.gub.uy/comoir/parada?numero=895"
896,"BV MANUEL HERRERA Y OBES y GOWLAND",896,-34.853432,-56.234094,0,"https://m.montevideo.gub.uy/comoir/parada?numero=896"
897,"RODOLFO RINCON - AV 40 MTS",897,-34.853317,-56.236565,0,"https://m.montevideo.gub.uy/comoir/parada?numero=897"
898,"AV LUIS BATLLE BERRES - FERREIRA Y ARTIGAS",898,-34.85197,-56.239522,0,"https://m.montevideo.gub.uy/comoir/parada?numero=898"
899,"AV LUIS BATLLE BERRES y PSJE PARTICULAR CH 67 BELVEDERE",899,-34.850685,-56.241853,0,"https://m.montevideo.gub.uy/comoir/parada?numero=899"
900,"AV LUIS BATLLE BERRES y TRES CRUCES",900,-34.849378,-56.24418,0,"https://m.montevideo.gub.uy/comoir/parada?numero=900"
901,"AV LUIS BATLLE BERRES - YUGOESLAVIA",901,-34.847595,-56.247394,0,"https://m.montevideo.gub.uy/comoir/parada?numero=901"
902,"AV LUIS BATLLE BERRES y PSJE CHARRUA",902,-34.845321,-56.251302,0,"https://m.montevideo.gub.uy/comoir/parada?numero=902"
903,"SANTA LUCIA y ACCESO RUTA 5 SANTA LUCIA",903,-34.836947,-56.251938,0,"https://m.montevideo.gub.uy/comoir/parada?numero=903"
918,"ANTONIO RUBIO - NIÑA",918,-34.807823,-56.250613,0,"https://m.montevideo.gub.uy/comoir/parada?numero=918"
920,"JUAN P LAMOLLE - ISOLICA",920,-34.806594,-56.247619,0,"https://m.montevideo.gub.uy/comoir/parada?numero=920"
921,"JUAN P LAMOLLE y MONTALVO",921,-34.80345,-56.245086,0,"https://m.montevideo.gub.uy/comoir/parada?numero=921"
922,"AV LEZICA - JUAN P LAMOLLE",922,-34.801381,-56.24216,0,"https://m.montevideo.gub.uy/comoir/parada?numero=922"
923,"AV LEZICA - JUAN P LAMOLLE",923,-34.801154,-56.242635,0,"https://m.montevideo.gub.uy/comoir/parada?numero=923"
924,"AV LEZICA - NIÑA",924,-34.800196,-56.24345,0,"https://m.montevideo.gub.uy/comoir/parada?numero=924"
925,"AV LEZICA - NIÑA",925,-34.799969,-56.243953,0,"https://m.montevideo.gub.uy/comoir/parada?numero=925"
926,"AV LEZICA - SANTA MARIA",926,-34.798902,-56.244932,0,"https://m.montevideo.gub.uy/comoir/parada?numero=926"
927,"AV LEZICA - SANTA MARIA",927,-34.798737,-56.245324,0,"https://m.montevideo.gub.uy/comoir/parada?numero=927"
928,"AV LEZICA - PINTA",928,-34.79735,-56.247025,0,"https://m.montevideo.gub.uy/comoir/parada?numero=928"
930,"AV LEZICA - GUANAHANY",930,-34.796439,-56.247767,0,"https://m.montevideo.gub.uy/comoir/parada?numero=930"
931,"AV LEZICA - GUANAHANY",931,-34.79625,-56.248261,0,"https://m.montevideo.gub.uy/comoir/parada?numero=931"
932,"AV LEZICA - VERAGUAS",932,-34.795222,-56.24915,0,"https://m.montevideo.gub.uy/comoir/parada?numero=932"
933,"AV LEZICA - VERAGUAS",933,-34.795037,-56.24967,0,"https://m.montevideo.gub.uy/comoir/parada?numero=933"
934,"AV LEZICA - PEABODY",934,-34.793977,-56.250639,0,"https://m.montevideo.gub.uy/comoir/parada?numero=934"
935,"AV LEZICA - PEABODY",935,-34.793719,-56.251142,0,"https://m.montevideo.gub.uy/comoir/parada?numero=935"
936,"AV LEZICA - LUIS MORANDI",936,-34.792752,-56.252033,0,"https://m.montevideo.gub.uy/comoir/parada?numero=936"
937,"AV LEZICA - LUIS MORANDI",937,-34.792521,-56.252528,0,"https://m.montevideo.gub.uy/comoir/parada?numero=937"
938,"AV LEZICA - MEDIODIA",938,-34.791555,-56.253364,0,"https://m.montevideo.gub.uy/comoir/parada?numero=938"
939,"AV LEZICA - MEDIODIA",939,-34.791368,-56.253865,0,"https://m.montevideo.gub.uy/comoir/parada?numero=939"
940,"AV LEZICA - CNO AVIADORES CIVILES",940,-34.788382,-56.257615,0,"https://m.montevideo.gub.uy/comoir/parada?numero=940"
941,"AV LEZICA - CNO AVIADORES CIVILES",941,-34.78803,-56.258264,0,"https://m.montevideo.gub.uy/comoir/parada?numero=941"
942,"AV LEZICA - CALLE N1",942,-34.787217,-56.259966,0,"https://m.montevideo.gub.uy/comoir/parada?numero=942"
943,"AV LEZICA - CALLE N1",943,-34.787313,-56.260223,0,"https://m.montevideo.gub.uy/comoir/parada?numero=943"
944,"CNO FAUQUET - SDA DE PASO",944,-34.770068,-56.263681,0,"https://m.montevideo.gub.uy/comoir/parada?numero=944"
945,"CNO FAUQUET y SDA DE PASO",945,-34.770209,-56.263453,0,"https://m.montevideo.gub.uy/comoir/parada?numero=945"
946,"CNO FAUQUET y CNO AYMARA",946,-34.778644,-56.256248,0,"https://m.montevideo.gub.uy/comoir/parada?numero=946"
947,"CNO FAUQUET y CNO AYMARA",947,-34.778457,-56.256542,0,"https://m.montevideo.gub.uy/comoir/parada?numero=947"
948,"CNO FAUQUET - SANTOS VEGA",948,-34.784934,-56.250589,0,"https://m.montevideo.gub.uy/comoir/parada?numero=948"
949,"CNO FAUQUET - SANTOS VEGA",949,-34.784803,-56.250443,0,"https://m.montevideo.gub.uy/comoir/parada?numero=949"
951,"CNO FAUQUET - CNO DEL PAYADOR",951,-34.786748,-56.248284,0,"https://m.montevideo.gub.uy/comoir/parada?numero=951"
952,"CNO FAUQUET - PEABODY",952,-34.789544,-56.245591,0,"https://m.montevideo.gub.uy/comoir/parada?numero=952"
953,"CNO FAUQUET - PEABODY",953,-34.789686,-56.245334,0,"https://m.montevideo.gub.uy/comoir/parada?numero=953"
954,"CNO FAUQUET - GUANAHANY",954,-34.792012,-56.243095,0,"https://m.montevideo.gub.uy/comoir/parada?numero=954"
955,"PSJE PEATONAL VEHICULAR - CNO FAUQUET",955,-34.791651,-56.24249,0,"https://m.montevideo.gub.uy/comoir/parada?numero=955"
956,"VEHICULAR/ PEATONAL - GUANAHANY",956,-34.791685,-56.24277,0,"https://m.montevideo.gub.uy/comoir/parada?numero=956"
957,"GUANAHANY - CNO FAUQUET",957,-34.792594,-56.243177,0,"https://m.montevideo.gub.uy/comoir/parada?numero=957"
958,"GUANAHANY - GIOIA",958,-34.793821,-56.244836,0,"https://m.montevideo.gub.uy/comoir/parada?numero=958"
959,"GUANAHANY - GIOIA",959,-34.794155,-56.245079,0,"https://m.montevideo.gub.uy/comoir/parada?numero=959"
960,"GUANAHANY - AV LEZICA",960,-34.796182,-56.247888,0,"https://m.montevideo.gub.uy/comoir/parada?numero=960"
961,"PEABODY y AV LEZICA",961,-34.794069,-56.251034,0,"https://m.montevideo.gub.uy/comoir/parada?numero=961"
962,"PEABODY - LUIS LASAGNA",962,-34.794968,-56.25233,0,"https://m.montevideo.gub.uy/comoir/parada?numero=962"
963,"PEABODY - LUIS LASAGNA",963,-34.795138,-56.252483,0,"https://m.montevideo.gub.uy/comoir/parada?numero=963"
964,"PEABODY - PDRE JOSE DOMINGO MOLAS",964,-34.796719,-56.254462,0,"https://m.montevideo.gub.uy/comoir/parada?numero=964"
965,"PINTA - CNO MELILLA",965,-34.802489,-56.254718,0,"https://m.montevideo.gub.uy/comoir/parada?numero=965"
966,"PINTA - LISTER",966,-34.801362,-56.25132,0,"https://m.montevideo.gub.uy/comoir/parada?numero=966"
967,"PINTA - LISTER",967,-34.800938,-56.250927,0,"https://m.montevideo.gub.uy/comoir/parada?numero=967"
968,"PINTA - MONTALVO",968,-34.800062,-56.249716,0,"https://m.montevideo.gub.uy/comoir/parada?numero=968"
969,"PINTA - MONTALVO",969,-34.799823,-56.249509,0,"https://m.montevideo.gub.uy/comoir/parada?numero=969"
970,"PINTA y DR ANTONIO ANZALONE",970,-34.798415,-56.247577,0,"https://m.montevideo.gub.uy/comoir/parada?numero=970"
971,"GUTTEMBERG y VERAGUAS",971,-34.794038,-56.247691,0,"https://m.montevideo.gub.uy/comoir/parada?numero=971"
972,"AV LEZICA y VOLTA",972,-34.80155,-56.239875,0,"https://m.montevideo.gub.uy/comoir/parada?numero=972"
973,"AV LEZICA - GIOIA",973,-34.801406,-56.239035,0,"https://m.montevideo.gub.uy/comoir/parada?numero=973"
974,"AV LEZICA - CARLOS OTT",974,-34.801879,-56.236965,0,"https://m.montevideo.gub.uy/comoir/parada?numero=974"
975,"AV LEZICA y CNO DEL APERO",975,-34.801887,-56.236477,0,"https://m.montevideo.gub.uy/comoir/parada?numero=975"
976,"AV LEZICA y CAACUPE",976,-34.802574,-56.233944,0,"https://m.montevideo.gub.uy/comoir/parada?numero=976"
977,"AV LEZICA y CAACUPE",977,-34.802373,-56.233901,0,"https://m.montevideo.gub.uy/comoir/parada?numero=977"
978,"AV LEZICA - CALDERON DE LA BARCA",978,-34.803661,-56.228442,0,"https://m.montevideo.gub.uy/comoir/parada?numero=978"
979,"AV LEZICA - YEGROS",979,-34.803428,-56.228693,0,"https://m.montevideo.gub.uy/comoir/parada?numero=979"
983,"AV LEZICA - CALDERON DE LA BARCA",983,-34.803987,-56.225728,0,"https://m.montevideo.gub.uy/comoir/parada?numero=983"
985,"YEGROS - VEHICULAR/ PEATONAL",985,-34.799508,-56.228483,0,"https://m.montevideo.gub.uy/comoir/parada?numero=985"
988,"AV CIBILS y NUBLE YIC",988,-34.853742,-56.270884,0,"https://m.montevideo.gub.uy/comoir/parada?numero=988"
989,"AV CIBILS y NUBLE YIC",989,-34.854063,-56.27064,0,"https://m.montevideo.gub.uy/comoir/parada?numero=989"
990,"AV CIBILS y CALLE 7688",990,-34.856557,-56.270307,0,"https://m.montevideo.gub.uy/comoir/parada?numero=990"
991,"AV CIBILS y CALLE 7688",991,-34.856219,-56.270232,0,"https://m.montevideo.gub.uy/comoir/parada?numero=991"
992,"AV CIBILS y CNO ALIANZA",992,-34.858473,-56.269931,0,"https://m.montevideo.gub.uy/comoir/parada?numero=992"
993,"AV CIBILS y CNO ALIANZA",993,-34.85909,-56.269635,0,"https://m.montevideo.gub.uy/comoir/parada?numero=993"
994,"AV CIBILS y CNO LA BOYADA",994,-34.8604,-56.269501,0,"https://m.montevideo.gub.uy/comoir/parada?numero=994"
995,"AV CIBILS y CNO LA BOYADA",995,-34.861143,-56.269201,0,"https://m.montevideo.gub.uy/comoir/parada?numero=995"
996,"AV CIBILS y MARTIRES DE LA IND FRIGORIFICA",996,-34.862822,-56.268995,0,"https://m.montevideo.gub.uy/comoir/parada?numero=996"
997,"AV CIBILS y CIRC INT SIN DENOM",997,-34.863449,-56.268687,0,"https://m.montevideo.gub.uy/comoir/parada?numero=997"
998,"AV CIBILS y CIRC INT SIN DENOM",998,-34.864272,-56.268664,0,"https://m.montevideo.gub.uy/comoir/parada?numero=998"
999,"AV CIBILS y FRANCISCO JAVIER SITI",999,-34.865721,-56.268274,0,"https://m.montevideo.gub.uy/comoir/parada?numero=999"
1000,"CNO CIBILS y VERDUN",1000,-34.866957,-56.268164,0,"https://m.montevideo.gub.uy/comoir/parada?numero=1000"
1002,"AV CIBILS y CNO BUFFA",1002,-34.868715,-56.267701,0,"https://m.montevideo.gub.uy/comoir/parada?numero=1002"
1003,"AV CIBILS y CNO LA PALOMA",1003,-34.870561,-56.267335,0,"https://m.montevideo.gub.uy/comoir/parada?numero=1003"
1004,"SDA DE PASO y AV CIBILS",1004,-34.871877,-56.267218,0,"https://m.montevideo.gub.uy/comoir/parada?numero=1004"
1006,"CNO SANFUENTES y CIRC INT SIN DENOM",1006,-34.873019,-56.272494,0,"https://m.montevideo.gub.uy/comoir/parada?numero=1006"
1007,"CNO SANFUENTES - PSJE PNAL LA TORTUGA",1007,-34.873374,-56.274978,0,"https://m.montevideo.gub.uy/comoir/parada?numero=1007"
1008,"CNO SANFUENTES y SDA DE PASO",1008,-34.873804,-56.27829,0,"https://m.montevideo.gub.uy/comoir/parada?numero=1008"
1009,"CNO SANFUENTES y LOS HELECHOS",1009,-34.874098,-56.28043,0,"https://m.montevideo.gub.uy/comoir/parada?numero=1009"
1010,"CNO SANFUENTES y BOLDO",1010,-34.874354,-56.282661,0,"https://m.montevideo.gub.uy/comoir/parada?numero=1010"
1011,"CNO SANFUENTES - CNO BAJO DE LA PETIZA",1011,-34.874829,-56.285658,0,"https://m.montevideo.gub.uy/comoir/parada?numero=1011"
1012,"CNO SANFUENTES y CNO DELLAZOPPA",1012,-34.875504,-56.290894,0,"https://m.montevideo.gub.uy/comoir/parada?numero=1012"
1013,"CNO SANFUENTES y CNO DELLAZOPPA",1013,-34.876159,-56.295576,0,"https://m.montevideo.gub.uy/comoir/parada?numero=1013"
1014,"CNO SANFUENTES y CNO FERRES",1014,-34.876528,-56.298412,0,"https://m.montevideo.gub.uy/comoir/parada?numero=1014"
1015,"CNO SANFUENTES - CNO FERRES",1015,-34.877048,-56.301916,0,"https://m.montevideo.gub.uy/comoir/parada?numero=1015"
1016,"CNO SANFUENTES - CNO SALABERRY",1016,-34.877392,-56.304356,0,"https://m.montevideo.gub.uy/comoir/parada?numero=1016"
1017,"CNO SANFUENTES y CNO SALABERRY",1017,-34.877659,-56.307317,0,"https://m.montevideo.gub.uy/comoir/parada?numero=1017"
1018,"CNO SANFUENTES - CNO ANTARTIDA URUGUAYA",1018,-34.875866,-56.316814,0,"https://m.montevideo.gub.uy/comoir/parada?numero=1018"
1019,"CNO SANFUENTES y CNO SALABERRY",1019,-34.877723,-56.30687,0,"https://m.montevideo.gub.uy/comoir/parada?numero=1019"
1020,"CNO SANFUENTES - CNO SALABERRY",1020,-34.87745,-56.304507,0,"https://m.montevideo.gub.uy/comoir/parada?numero=1020"
1021,"CNO SANFUENTES - CNO FERRES",1021,-34.877101,-56.302073,0,"https://m.montevideo.gub.uy/comoir/parada?numero=1021"
1022,"CNO SANFUENTES y CNO FERRES",1022,-34.876707,-56.298889,0,"https://m.montevideo.gub.uy/comoir/parada?numero=1022"
1023,"CNO SANFUENTES y CNO DELLAZOPPA",1023,-34.876148,-56.294721,0,"https://m.montevideo.gub.uy/comoir/parada?numero=1023"
1024,"CNO SANFUENTES y CNO DELLAZOPPA",1024,-34.875586,-56.290826,0,"https://m.montevideo.gub.uy/comoir/parada?numero=1024"
1025,"CNO SANFUENTES - CNO BAJO DE LA PETIZA",1025,-34.874909,-56.286045,0,"https://m.montevideo.gub.uy/comoir/parada?numero=1025"
1026,"CNO SANFUENTES y ADOLFO PASTOR",1026,-34.87455,-56.283225,0,"https://m.montevideo.gub.uy/comoir/parada?numero=1026"
1027,"CNO SANFUENTES y LOS HELECHOS",1027,-34.874204,-56.280736,0,"https://m.montevideo.gub.uy/comoir/parada?numero=1027"
1028,"CNO SANFUENTES y SDA DE PASO",1028,-34.873905,-56.278512,0,"https://m.montevideo.gub.uy/comoir/parada?numero=1028"
1029,"CNO SANFUENTES y LOS TEROS",1029,-34.873358,-56.274699,0,"https://m.montevideo.gub.uy/comoir/parada?numero=1029"
1030,"CNO SANFUENTES y PILAR BASTIDA",1030,-34.873159,-56.273049,0,"https://m.montevideo.gub.uy/comoir/parada?numero=1030"
1032,"CNO SANFUENTES y AV CIBILS",1032,-34.872397,-56.267505,0,"https://m.montevideo.gub.uy/comoir/parada?numero=1032"
1033,"AV CIBILS y OCEANIA",1033,-34.872667,-56.266908,0,"https://m.montevideo.gub.uy/comoir/parada?numero=1033"
1034,"AV CIBILS y AUSTRALIA",1034,-34.873941,-56.266798,0,"https://m.montevideo.gub.uy/comoir/parada?numero=1034"
1035,"AV CIBILS y AUSTRALIA",1035,-34.873754,-56.266695,0,"https://m.montevideo.gub.uy/comoir/parada?numero=1035"
1036,"BURDEOS y SENEGAL",1036,-34.880362,-56.269932,0,"https://m.montevideo.gub.uy/comoir/parada?numero=1036"
1037,"BURDEOS y 12 MTS",1037,-34.880975,-56.272588,0,"https://m.montevideo.gub.uy/comoir/parada?numero=1037"
1039,"BURDEOS - PASAJE 18MTS",1039,-34.882198,-56.276746,0,"https://m.montevideo.gub.uy/comoir/parada?numero=1039"
1040,"BURDEOS y CARLOS PEDRELL",1040,-34.883362,-56.280546,0,"https://m.montevideo.gub.uy/comoir/parada?numero=1040"
1041,"BURDEOS - CNO DELLAZOPPA",1041,-34.885387,-56.289741,0,"https://m.montevideo.gub.uy/comoir/parada?numero=1041"
1042,"CNO SANTA CATALINA - TAMBERA",1042,-34.888229,-56.292862,0,"https://m.montevideo.gub.uy/comoir/parada?numero=1042"
1043,"CNO SANTA CATALINA - LAS ACHIRAS",1043,-34.890168,-56.292485,0,"https://m.montevideo.gub.uy/comoir/parada?numero=1043"
1044,"LAS ACHIRAS y LAS ROSAS",1044,-34.891068,-56.294232,0,"https://m.montevideo.gub.uy/comoir/parada?numero=1044"
1045,"LAS ACHIRAS - CNO SANTA CATALINA",1045,-34.890387,-56.292594,0,"https://m.montevideo.gub.uy/comoir/parada?numero=1045"
1046,"CNO SANTA CATALINA - TAMBERA",1046,-34.888211,-56.292833,0,"https://m.montevideo.gub.uy/comoir/parada?numero=1046"
1047,"BURDEOS - CNO DELLAZOPPA",1047,-34.88549,-56.289867,0,"https://m.montevideo.gub.uy/comoir/parada?numero=1047"
1048,"BURDEOS - CARLOS PEDRELL",1048,-34.88357,-56.280862,0,"https://m.montevideo.gub.uy/comoir/parada?numero=1048"
1049,"BURDEOS - PSJE 18 MTS BO 20 DE JULIO",1049,-34.882362,-56.276779,0,"https://m.montevideo.gub.uy/comoir/parada?numero=1049"
1050,"BURDEOS - PROY 17 MTS BO 20 DE JULIO",1050,-34.881718,-56.274781,0,"https://m.montevideo.gub.uy/comoir/parada?numero=1050"
1051,"BURDEOS y BULGARIA",1051,-34.879688,-56.264855,0,"https://m.montevideo.gub.uy/comoir/parada?numero=1051"
1052,"AV CARLOS MARIA RAMIREZ y PLA A CNO CIBILS",1052,-34.876293,-56.268154,0,"https://m.montevideo.gub.uy/comoir/parada?numero=1052"
1053,"LA VIA - ARGELIA",1053,-34.877265,-56.272474,0,"https://m.montevideo.gub.uy/comoir/parada?numero=1053"
1054,"LA VIA y PROYECTADA 15 METROS",1054,-34.8787,-56.272898,0,"https://m.montevideo.gub.uy/comoir/parada?numero=1054"
1055,"PSJE LA VIA - BURDEOS",1055,-34.881205,-56.274027,0,"https://m.montevideo.gub.uy/comoir/parada?numero=1055"
1056,"PSJE LA VIA - PLA A ESTADOS UNIDOS",1056,-34.878531,-56.272797,0,"https://m.montevideo.gub.uy/comoir/parada?numero=1056"
1057,"PSJE LA VIA - AV CARLOS MARIA RAMIREZ",1057,-34.877027,-56.272326,0,"https://m.montevideo.gub.uy/comoir/parada?numero=1057"
1058,"AV CARLOS MARIA RAMIREZ y PLA A CNO CIBILS",1058,-34.876433,-56.268021,0,"https://m.montevideo.gub.uy/comoir/parada?numero=1058"
1059,"AV CARLOS MARIA RAMIREZ y BULGARIA",1059,-34.876149,-56.265802,0,"https://m.montevideo.gub.uy/comoir/parada?numero=1059"
1060,"AV CARLOS MARIA RAMIREZ - DINAMARCA",1060,-34.87581,-56.26344,0,"https://m.montevideo.gub.uy/comoir/parada?numero=1060"
1061,"AV CARLOS MARIA RAMIREZ - FILIPINAS",1061,-34.875534,-56.261275,0,"https://m.montevideo.gub.uy/comoir/parada?numero=1061"
1062,"AV CARLOS MARIA RAMIREZ - PUERTO RICO",1062,-34.875246,-56.259149,0,"https://m.montevideo.gub.uy/comoir/parada?numero=1062"
1063,"AV CARLOS MARIA RAMIREZ y VIZCAYA",1063,-34.875,-56.257175,0,"https://m.montevideo.gub.uy/comoir/parada?numero=1063"
1064,"AV CARLOS MARIA RAMIREZ y BOGOTA",1064,-34.874694,-56.254944,0,"https://m.montevideo.gub.uy/comoir/parada?numero=1064"
1069,"AV CARLOS MARIA RAMIREZ y BOGOTA",1069,-34.874489,-56.254268,0,"https://m.montevideo.gub.uy/comoir/parada?numero=1069"
1070,"AV CARLOS MARIA RAMIREZ y VIZCAYA",1070,-34.874776,-56.256403,0,"https://m.montevideo.gub.uy/comoir/parada?numero=1070"
1071,"AV CARLOS MARIA RAMIREZ - PUERTO RICO",1071,-34.875146,-56.2588,0,"https://m.montevideo.gub.uy/comoir/parada?numero=1071"
1072,"AV CARLOS MARIA RAMIREZ - FILIPINAS",1072,-34.875437,-56.260973,0,"https://m.montevideo.gub.uy/comoir/parada?numero=1072"
1073,"AV CARLOS MARIA RAMIREZ - DINAMARCA",1073,-34.875721,-56.263149,0,"https://m.montevideo.gub.uy/comoir/parada?numero=1073"
1074,"AV CARLOS MARIA RAMIREZ y BULGARIA",1074,-34.875932,-56.265297,0,"https://m.montevideo.gub.uy/comoir/parada?numero=1074"
1075,"AV ING FEDERICO E CAPURRO y DINAMARCA",1075,-34.874053,-56.263223,0,"https://m.montevideo.gub.uy/comoir/parada?numero=1075"
1076,"AV ING FEDERICO E CAPURRO y GIBRALTAR",1076,-34.873481,-56.263811,0,"https://m.montevideo.gub.uy/comoir/parada?numero=1076"
1077,"CNO DE LAS TROPAS y AV ING FEDERICO E CAPURRO",1077,-34.87254,-56.26519,0,"https://m.montevideo.gub.uy/comoir/parada?numero=1077"
1078,"CNO DE LAS TROPAS - ORFILIA RICO",1078,-34.870587,-56.263815,0,"https://m.montevideo.gub.uy/comoir/parada?numero=1078"
1079,"CNO DE LAS TROPAS y PSJE 4",1079,-34.870963,-56.263741,0,"https://m.montevideo.gub.uy/comoir/parada?numero=1079"
1080,"CNO DE LAS TROPAS - PERNAMBUCO",1080,-34.8685,-56.261972,0,"https://m.montevideo.gub.uy/comoir/parada?numero=1080"
1081,"CNO DE LAS TROPAS y PERNAMBUCO",1081,-34.868216,-56.261859,0,"https://m.montevideo.gub.uy/comoir/parada?numero=1081"
1082,"CNO DE LAS TROPAS - SAMUEL LAFONE",1082,-34.866941,-56.26085,0,"https://m.montevideo.gub.uy/comoir/parada?numero=1082"
1083,"SAMUEL LAFONE y CNO DE LAS TROPAS",1083,-34.866721,-56.260535,0,"https://m.montevideo.gub.uy/comoir/parada?numero=1083"
1084,"SAMUEL LAFONE - CNO DE LAS TROPAS",1084,-34.866891,-56.261224,0,"https://m.montevideo.gub.uy/comoir/parada?numero=1084"
1085,"SAMUEL LAFONE y PSJE DE LA VIA A LA TABLADA",1085,-34.867368,-56.265263,0,"https://m.montevideo.gub.uy/comoir/parada?numero=1085"
1086,"SAMUEL LAFONE - PSJE DE LA VIA A LA TABLADA",1086,-34.867495,-56.26557,0,"https://m.montevideo.gub.uy/comoir/parada?numero=1086"
1087,"SAMUEL LAFONE y CNO CIBILS",1087,-34.867703,-56.267684,0,"https://m.montevideo.gub.uy/comoir/parada?numero=1087"
1088,"CNO LA BOYADA y CNO CIBILS",1088,-34.860539,-56.269072,0,"https://m.montevideo.gub.uy/comoir/parada?numero=1088"
1089,"CNO LA BOYADA y CONGRESO DE AVALOS",1089,-34.860292,-56.265736,0,"https://m.montevideo.gub.uy/comoir/parada?numero=1089"
1090,"CNO LA BOYADA y CONGRESO DE AVALOS",1090,-34.860057,-56.265209,0,"https://m.montevideo.gub.uy/comoir/parada?numero=1090"
1091,"CNO LA BOYADA - CABILDO GDOR DE LA PROV ORIENTAL",1091,-34.859828,-56.262778,0,"https://m.montevideo.gub.uy/comoir/parada?numero=1091"
1092,"CNO LA BOYADA y CABILDO GDOR DE LA PROV ORIENTAL",1092,-34.859669,-56.262534,0,"https://m.montevideo.gub.uy/comoir/parada?numero=1092"
1093,"CNO LA BOYADA - LUCIO RODRIGUEZ",1093,-34.859359,-56.259004,0,"https://m.montevideo.gub.uy/comoir/parada?numero=1093"
1094,"LUCIO RODRIGUEZ - CNO LA BOYADA",1094,-34.859465,-56.258722,0,"https://m.montevideo.gub.uy/comoir/parada?numero=1094"
1095,"LUCIO RODRIGUEZ y CNO DE LAS TROPAS",1095,-34.86281,-56.258155,0,"https://m.montevideo.gub.uy/comoir/parada?numero=1095"
1096,"LUCIO RODRIGUEZ - CNO DE LAS TROPAS",1096,-34.863105,-56.258019,0,"https://m.montevideo.gub.uy/comoir/parada?numero=1096"
1097,"LUCIO RODRIGUEZ y JOAQUIN MARTORI",1097,-34.865931,-56.257509,0,"https://m.montevideo.gub.uy/comoir/parada?numero=1097"
1098,"SAMUEL LAFONE - LUCIO RODRIGUEZ",1098,-34.866406,-56.257546,0,"https://m.montevideo.gub.uy/comoir/parada?numero=1098"
1099,"JOAQUIN MARTORI - SAMUEL LAFONE",1099,-34.866407,-56.257194,0,"https://m.montevideo.gub.uy/comoir/parada?numero=1099"
1100,"CNO LA BOYADA - JOSE TRAPANI",1100,-34.8588,-56.254648,0,"https://m.montevideo.gub.uy/comoir/parada?numero=1100"
1101,"CNO LA BOYADA - AV DR SANTIN CARLOS ROSSI",1101,-34.858319,-56.251138,0,"https://m.montevideo.gub.uy/comoir/parada?numero=1101"
1103,"AV DR SANTIN CARLOS ROSSI y PJE PEAT T5",1103,-34.859739,-56.251306,0,"https://m.montevideo.gub.uy/comoir/parada?numero=1103"
1104,"AV DR SANTIN CARLOS ROSSI - CNO AL PARQUE",1104,-34.863204,-56.252232,0,"https://m.montevideo.gub.uy/comoir/parada?numero=1104"
1105,"AV DR SANTIN CARLOS ROSSI y CALLE 17 MTS",1105,-34.864771,-56.252414,0,"https://m.montevideo.gub.uy/comoir/parada?numero=1105"
1106,"AV DR SANTIN CARLOS ROSSI - PERNAMBUCO",1106,-34.867071,-56.253275,0,"https://m.montevideo.gub.uy/comoir/parada?numero=1106"
1107,"AV DR SANTIN CARLOS ROSSI - BRASILIA",1107,-34.87022,-56.253265,0,"https://m.montevideo.gub.uy/comoir/parada?numero=1107"
1108,"AV DR SANTIN CARLOS ROSSI - HAITI",1108,-34.872205,-56.252968,0,"https://m.montevideo.gub.uy/comoir/parada?numero=1108"
1109,"AV DR SANTIN CARLOS ROSSI - AV CARLOS MARIA RAMIREZ",1109,-34.874115,-56.252675,0,"https://m.montevideo.gub.uy/comoir/parada?numero=1109"
1110,"GRECIA - BURDEOS",1110,-34.877596,-56.25069,0,"https://m.montevideo.gub.uy/comoir/parada?numero=1110"
1111,"GRECIA - BELGICA",1111,-34.879364,-56.250337,0,"https://m.montevideo.gub.uy/comoir/parada?numero=1111"
1112,"GRECIA - AUSTRIA",1112,-34.881165,-56.249977,0,"https://m.montevideo.gub.uy/comoir/parada?numero=1112"
1113,"GRECIA - RUSIA",1113,-34.882926,-56.249614,0,"https://m.montevideo.gub.uy/comoir/parada?numero=1113"
1114,"GRECIA - HOLANDA",1114,-34.884664,-56.249269,0,"https://m.montevideo.gub.uy/comoir/parada?numero=1114"
1115,"GRECIA - PRUSIA",1115,-34.886477,-56.248894,0,"https://m.montevideo.gub.uy/comoir/parada?numero=1115"
1117,"GRECIA y BARCELONA",1117,-34.888226,-56.248572,0,"https://m.montevideo.gub.uy/comoir/parada?numero=1117"
1118,"GRECIA - REPUBLICA ARGENTINA",1118,-34.89004,-56.248158,0,"https://m.montevideo.gub.uy/comoir/parada?numero=1118"
1119,"GRECIA y NORTE AMERICA",1119,-34.891726,-56.247834,0,"https://m.montevideo.gub.uy/comoir/parada?numero=1119"
1120,"INGLATERRA - BOGOTA",1120,-34.893214,-56.250635,0,"https://m.montevideo.gub.uy/comoir/parada?numero=1120"
1121,"INGLATERRA y RIO DE JANEIRO",1121,-34.893418,-56.252211,0,"https://m.montevideo.gub.uy/comoir/parada?numero=1121"
1122,"VIZCAYA - SUIZA",1122,-34.895163,-56.25266,0,"https://m.montevideo.gub.uy/comoir/parada?numero=1122"
1123,"SUIZA y RIO DE JANEIRO",1123,-34.895275,-56.251668,0,"https://m.montevideo.gub.uy/comoir/parada?numero=1123"
1124,"SUIZA y PORTUGAL",1124,-34.895013,-56.24967,0,"https://m.montevideo.gub.uy/comoir/parada?numero=1124"
1126,"GRECIA - MEJICO",1126,-34.893949,-56.247251,0,"https://m.montevideo.gub.uy/comoir/parada?numero=1126"
1127,"GRECIA - NORTE AMERICA",1127,-34.892048,-56.247681,0,"https://m.montevideo.gub.uy/comoir/parada?numero=1127"
1128,"GRECIA - REPUBLICA ARGENTINA",1128,-34.890373,-56.248049,0,"https://m.montevideo.gub.uy/comoir/parada?numero=1128"
1130,"GRECIA y BARCELONA",1130,-34.887978,-56.248515,0,"https://m.montevideo.gub.uy/comoir/parada?numero=1130"
1131,"GRECIA - PRUSIA",1131,-34.886739,-56.248787,0,"https://m.montevideo.gub.uy/comoir/parada?numero=1131"
1132,"GRECIA - HOLANDA",1132,-34.885015,-56.249125,0,"https://m.montevideo.gub.uy/comoir/parada?numero=1132"
1133,"GRECIA - RUSIA",1133,-34.883194,-56.249502,0,"https://m.montevideo.gub.uy/comoir/parada?numero=1133"
1134,"GRECIA y AUSTRIA",1134,-34.881498,-56.249823,0,"https://m.montevideo.gub.uy/comoir/parada?numero=1134"
1135,"GRECIA - BELGICA",1135,-34.879641,-56.250215,0,"https://m.montevideo.gub.uy/comoir/parada?numero=1135"
1136,"GRECIA y BURDEOS",1136,-34.878096,-56.250495,0,"https://m.montevideo.gub.uy/comoir/parada?numero=1136"
1137,"GRECIA - ESTADOS UNIDOS",1137,-34.876096,-56.25092,0,"https://m.montevideo.gub.uy/comoir/parada?numero=1137"
1139,"AV DR SANTIN CARLOS ROSSI y HAITI",1139,-34.87258,-56.252691,0,"https://m.montevideo.gub.uy/comoir/parada?numero=1139"
1140,"AV DR SANTIN CARLOS ROSSI y PERNAMBUCO",1140,-34.867624,-56.253067,0,"https://m.montevideo.gub.uy/comoir/parada?numero=1140"
1141,"BOGOTA - BERNA",1141,-34.877145,-56.254082,0,"https://m.montevideo.gub.uy/comoir/parada?numero=1141"
1142,"BOGOTA y JAPON",1142,-34.875332,-56.254469,0,"https://m.montevideo.gub.uy/comoir/parada?numero=1142"
1143,"BERNA - RIO DE JANEIRO",1143,-34.877378,-56.254952,0,"https://m.montevideo.gub.uy/comoir/parada?numero=1143"
1144,"RIO DE JANEIRO y JAPON",1144,-34.875866,-56.255418,0,"https://m.montevideo.gub.uy/comoir/parada?numero=1144"
1145,"AV AGRACIADA - JOSE B FREIRE",1145,-34.85624,-56.220152,0,"https://m.montevideo.gub.uy/comoir/parada?numero=1145"
1146,"AV GRAL EUGENIO GARZON - SAN QUINTIN",1146,-34.851804,-56.224016,0,"https://m.montevideo.gub.uy/comoir/parada?numero=1146"
1147,"AV GRAL EUGENIO GARZON - EMANCIPACION",1147,-34.849218,-56.223398,0,"https://m.montevideo.gub.uy/comoir/parada?numero=1147"
1149,"AV GRAL EUGENIO GARZON - CNO CARLOS MARIA DE PENA",1149,-34.84586,-56.222472,0,"https://m.montevideo.gub.uy/comoir/parada?numero=1149"
1150,"AV GRAL EUGENIO GARZON - AV ISLAS CANARIAS",1150,-34.843302,-56.221779,0,"https://m.montevideo.gub.uy/comoir/parada?numero=1150"
1152,"AV GRAL EUGENIO GARZON - MARIA ORTICOCHEA",1152,-34.838792,-56.221673,0,"https://m.montevideo.gub.uy/comoir/parada?numero=1152"
1154,"AV GRAL EUGENIO GARZON - AV MILLAN",1154,-34.834899,-56.221462,0,"https://m.montevideo.gub.uy/comoir/parada?numero=1154"
1155,"AV GRAL EUGENIO GARZON - CNO ARIEL",1155,-34.831375,-56.220854,0,"https://m.montevideo.gub.uy/comoir/parada?numero=1155"
1157,"AV GRAL EUGENIO GARZON y CNO GRAL MAXIMO SANTOS",1157,-34.824058,-56.219795,0,"https://m.montevideo.gub.uy/comoir/parada?numero=1157"
1159,"AV GRAL EUGENIO GARZON y CNO EDISON",1159,-34.819935,-56.220026,0,"https://m.montevideo.gub.uy/comoir/parada?numero=1159"
1160,"AV GRAL EUGENIO GARZON y BV APARICIO SARAVIA",1160,-34.815784,-56.220386,0,"https://m.montevideo.gub.uy/comoir/parada?numero=1160"
1161,"AV GRAL EUGENIO GARZON - CNO CASAVALLE",1161,-34.812626,-56.220655,0,"https://m.montevideo.gub.uy/comoir/parada?numero=1161"
1162,"AV GRAL EUGENIO GARZON y CARVE",1162,-34.808653,-56.221377,0,"https://m.montevideo.gub.uy/comoir/parada?numero=1162"
1163,"AV GRAL EUGENIO GARZON y PLAZA VIDIELLA",1163,-34.805889,-56.222049,0,"https://m.montevideo.gub.uy/comoir/parada?numero=1163"
1164,"AV GRAL EUGENIO GARZON - MARGARITA",1164,-34.802738,-56.223606,0,"https://m.montevideo.gub.uy/comoir/parada?numero=1164"
1167,"RUTA NAL CESAR MAYO GUTIERREZ - CNO CARLOS A LOPEZ",1167,-34.794144,-56.224384,0,"https://m.montevideo.gub.uy/comoir/parada?numero=1167"
1168,"RUTA NAL CESAR MAYO GUTIERREZ - FERNANDO MENCK",1168,-34.792158,-56.224284,0,"https://m.montevideo.gub.uy/comoir/parada?numero=1168"
1170,"RUTA NAL CESAR MAYO GUTIERREZ - HILARIO CABRERA",1170,-34.788644,-56.224054,0,"https://m.montevideo.gub.uy/comoir/parada?numero=1170"
1171,"RUTA NAL CESAR MAYO GUTIERREZ - CNO VARZI",1171,-34.785409,-56.22392,0,"https://m.montevideo.gub.uy/comoir/parada?numero=1171"
1172,"AV CESAR MAYO GUTIERREZ y BERNARDO ETCHEVARNE",1172,-34.781376,-56.224144,0,"https://m.montevideo.gub.uy/comoir/parada?numero=1172"
1173,"MARCOS PASSADORE - CNO OSVALDO RODRIGUEZ",1173,-34.778134,-56.224886,0,"https://m.montevideo.gub.uy/comoir/parada?numero=1173"
1174,"AV CESAR MAYO GUTIERREZ y CNO OSVALDO RODRIGUEZ",1174,-34.775801,-56.22576,0,"https://m.montevideo.gub.uy/comoir/parada?numero=1174"
1175,"RUTA NAL CESAR MAYO GUTIERREZ - IBICUY",1175,-34.774224,-56.226154,0,"https://m.montevideo.gub.uy/comoir/parada?numero=1175"
1176,"AV CESAR MAYO GUTIERREZ y AV DAYMAN",1176,-34.771859,-56.226837,0,"https://m.montevideo.gub.uy/comoir/parada?numero=1176"
1177,"RUTA NAL CESAR MAYO GUTIERREZ - ABREVADERO",1177,-34.769255,-56.227327,0,"https://m.montevideo.gub.uy/comoir/parada?numero=1177"
1178,"RUTA NAL CESAR MAYO GUTIERREZ - CORACE",1178,-34.768359,-56.22783,0,"https://m.montevideo.gub.uy/comoir/parada?numero=1178"
1179,"AV CESAR MAYO GUTIERREZ - AV DAYMAN",1179,-34.772295,-56.226751,0,"https://m.montevideo.gub.uy/comoir/parada?numero=1179"
1180,"RUTA NAL CESAR MAYO GUTIERREZ - IBICUY",1180,-34.77435,-56.226292,0,"https://m.montevideo.gub.uy/comoir/parada?numero=1180"
1181,"RUTA NAL CESAR MAYO GUTIERREZ - CNO OSVALDO RODRIGUEZ",1181,-34.775831,-56.225956,0,"https://m.montevideo.gub.uy/comoir/parada?numero=1181"
1182,"RUTA NAL CESAR MAYO GUTIERREZ - BERNARDO ETCHEVARNE",1182,-34.778458,-56.225093,0,"https://m.montevideo.gub.uy/comoir/parada?numero=1182"
1183,"RUTA NAL CESAR MAYO GUTIERREZ - BERNARDO ETCHEVARNE",1183,-34.780314,-56.224554,0,"https://m.montevideo.gub.uy/comoir/parada?numero=1183"
1184,"AV CESAR MAYO GUTIERREZ y CNO AL PASO CALPINO",1184,-34.785763,-56.224117,0,"https://m.montevideo.gub.uy/comoir/parada?numero=1184"
1185,"AV CESAR MAYO GUTIERREZ e HILARIO CABRERA",1185,-34.788065,-56.2242,0,"https://m.montevideo.gub.uy/comoir/parada?numero=1185"
1187,"RUTA NAL CESAR MAYO GUTIERREZ - FERNANDO MENCK",1187,-34.791627,-56.22445,0,"https://m.montevideo.gub.uy/comoir/parada?numero=1187"
1188,"RUTA NAL CESAR MAYO GUTIERREZ y CNO CARLOS A LOPEZ",1188,-34.793553,-56.224493,0,"https://m.montevideo.gub.uy/comoir/parada?numero=1188"
1189,"AV CESAR MAYO GUTIERREZ y CNO COLMAN",1189,-34.796523,-56.224663,0,"https://m.montevideo.gub.uy/comoir/parada?numero=1189"
1191,"AV GRAL EUGENIO GARZON - MARGARITA",1191,-34.80246,-56.223871,0,"https://m.montevideo.gub.uy/comoir/parada?numero=1191"
1192,"AV GRAL EUGENIO GARZON y PLAZA VIDIELLA",1192,-34.805667,-56.222477,0,"https://m.montevideo.gub.uy/comoir/parada?numero=1192"
1193,"AV GRAL EUGENIO GARZON y CARVE",1193,-34.808287,-56.221512,0,"https://m.montevideo.gub.uy/comoir/parada?numero=1193"
1194,"AV GRAL EUGENIO GARZON y CNO CASAVALLE",1194,-34.812016,-56.220825,0,"https://m.montevideo.gub.uy/comoir/parada?numero=1194"
1195,"AV GRAL EUGENIO GARZON y BV APARICIO SARAVIA",1195,-34.815013,-56.220523,0,"https://m.montevideo.gub.uy/comoir/parada?numero=1195"
1196,"AV GRAL EUGENIO GARZON y CNO EDISON",1196,-34.819371,-56.220147,0,"https://m.montevideo.gub.uy/comoir/parada?numero=1196"
1198,"AV GRAL EUGENIO GARZON y CNO GRAL MAXIMO SANTOS",1198,-34.823486,-56.219919,0,"https://m.montevideo.gub.uy/comoir/parada?numero=1198"
1199,"AV GRAL EUGENIO GARZON y BV JOSE BATLLE Y ORDOÑEZ",1199,-34.8273,-56.219997,0,"https://m.montevideo.gub.uy/comoir/parada?numero=1199"
1200,"AV GRAL EUGENIO GARZON y CNO ARIEL",1200,-34.830838,-56.220848,0,"https://m.montevideo.gub.uy/comoir/parada?numero=1200"
1201,"AV GRAL EUGENIO GARZON - AV MILLAN",1201,-34.834028,-56.221646,0,"https://m.montevideo.gub.uy/comoir/parada?numero=1201"
1203,"AV GRAL EUGENIO GARZON - MARIA ORTICOCHEA",1203,-34.838118,-56.221816,0,"https://m.montevideo.gub.uy/comoir/parada?numero=1203"
1205,"AV GRAL EUGENIO GARZON - CAAZAPA",1205,-34.842778,-56.221893,0,"https://m.montevideo.gub.uy/comoir/parada?numero=1205"
1206,"AV GRAL EUGENIO GARZON - CNO CARLOS MARIA DE PENA",1206,-34.845474,-56.222496,0,"https://m.montevideo.gub.uy/comoir/parada?numero=1206"
1208,"AV GRAL EUGENIO GARZON - EMANCIPACION",1208,-34.84889,-56.223454,0,"https://m.montevideo.gub.uy/comoir/parada?numero=1208"
1209,"AV GRAL EUGENIO GARZON - SAN QUINTIN",1209,-34.851958,-56.224457,0,"https://m.montevideo.gub.uy/comoir/parada?numero=1209"
1211,"AV CARLOS MARIA RAMIREZ y BELVEDERE",1211,-34.856079,-56.223818,0,"https://m.montevideo.gub.uy/comoir/parada?numero=1211"
1212,"AV CARLOS MARIA RAMIREZ y AV LUIS BATLLE BERRES",1212,-34.858572,-56.226882,0,"https://m.montevideo.gub.uy/comoir/parada?numero=1212"
1218,"INGLATERRA - CHILE",1218,-34.892917,-56.248474,0,"https://m.montevideo.gub.uy/comoir/parada?numero=1218"
1219,"REPUBLICA ARGENTINA - PORTUGAL",1219,-34.890396,-56.250108,0,"https://m.montevideo.gub.uy/comoir/parada?numero=1219"
1220,"REPUBLICA ARGENTINA - RIO DE JANEIRO",1220,-34.890705,-56.252282,0,"https://m.montevideo.gub.uy/comoir/parada?numero=1220"
1221,"RIO DE JANEIRO - BARCELONA",1221,-34.889153,-56.252698,0,"https://m.montevideo.gub.uy/comoir/parada?numero=1221"
1222,"BOGOTA - CHINA",1222,-34.880595,-56.25339,0,"https://m.montevideo.gub.uy/comoir/parada?numero=1222"
1223,"BOGOTA - SUECIA",1223,-34.882442,-56.253001,0,"https://m.montevideo.gub.uy/comoir/parada?numero=1223"
1224,"BOGOTA - CHARCAS",1224,-34.884264,-56.25265,0,"https://m.montevideo.gub.uy/comoir/parada?numero=1224"
1225,"BOGOTA - ECUADOR",1225,-34.886064,-56.252309,0,"https://m.montevideo.gub.uy/comoir/parada?numero=1225"
1226,"BOGOTA - JUAN B VIACABA",1226,-34.887851,-56.25197,0,"https://m.montevideo.gub.uy/comoir/parada?numero=1226"
1227,"BOGOTA - CENTRO AMERICA",1227,-34.889485,-56.251584,0,"https://m.montevideo.gub.uy/comoir/parada?numero=1227"
1228,"BOGOTA y FRANCIA",1228,-34.891337,-56.251217,0,"https://m.montevideo.gub.uy/comoir/parada?numero=1228"
1229,"BOGOTA - INGLATERRA",1229,-34.893076,-56.25086,0,"https://m.montevideo.gub.uy/comoir/parada?numero=1229"
1232,"SUECIA - FILIPINAS",1232,-34.883435,-56.259284,0,"https://m.montevideo.gub.uy/comoir/parada?numero=1232"
1233,"SUECIA - DINAMARCA",1233,-34.883745,-56.261395,0,"https://m.montevideo.gub.uy/comoir/parada?numero=1233"
1235,"BULGARIA - RUSIA",1235,-34.884772,-56.26371,0,"https://m.montevideo.gub.uy/comoir/parada?numero=1235"
1236,"UCRANIA - ETIOPIA",1236,-34.887007,-56.266526,0,"https://m.montevideo.gub.uy/comoir/parada?numero=1236"
1237,"ETIOPIA - GUINEA",1237,-34.887424,-56.26825,0,"https://m.montevideo.gub.uy/comoir/parada?numero=1237"
1243,"ETIOPIA y COSTA DE MARFIL",1243,-34.887824,-56.270998,0,"https://m.montevideo.gub.uy/comoir/parada?numero=1243"
1245,"ETIOPIA - UCRANIA",1245,-34.887257,-56.266691,0,"https://m.montevideo.gub.uy/comoir/parada?numero=1245"
1246,"UCRANIA y CONT RUSIA",1246,-34.885591,-56.266683,0,"https://m.montevideo.gub.uy/comoir/parada?numero=1246"
1247,"RUSIA - BULGARIA",1247,-34.885017,-56.263825,0,"https://m.montevideo.gub.uy/comoir/parada?numero=1247"
1248,"BULGARIA - SUECIA",1248,-34.884372,-56.263763,0,"https://m.montevideo.gub.uy/comoir/parada?numero=1248"
1249,"SUECIA - GIBRALTAR",1249,-34.88399,-56.262899,0,"https://m.montevideo.gub.uy/comoir/parada?numero=1249"
1250,"GIBRALTAR y CHINA",1250,-34.882336,-56.263041,0,"https://m.montevideo.gub.uy/comoir/parada?numero=1250"
1251,"GIBRALTAR y PERU",1251,-34.880537,-56.2634,0,"https://m.montevideo.gub.uy/comoir/parada?numero=1251"
1252,"GIBRALTAR y BERNA",1252,-34.878805,-56.263762,0,"https://m.montevideo.gub.uy/comoir/parada?numero=1252"
1254,"BULGARIA - BERNA",1254,-34.878515,-56.264984,0,"https://m.montevideo.gub.uy/comoir/parada?numero=1254"
1255,"BULGARIA - PERU",1255,-34.880417,-56.264592,0,"https://m.montevideo.gub.uy/comoir/parada?numero=1255"
1256,"BULGARIA - CHINA",1256,-34.88207,-56.264268,0,"https://m.montevideo.gub.uy/comoir/parada?numero=1256"
1257,"SUECIA - DINAMARCA",1257,-34.883839,-56.261819,0,"https://m.montevideo.gub.uy/comoir/parada?numero=1257"
1258,"SUECIA - FILIPINAS",1258,-34.883533,-56.259635,0,"https://m.montevideo.gub.uy/comoir/parada?numero=1258"
1259,"SUECIA - CUBA",1259,-34.883393,-56.258559,0,"https://m.montevideo.gub.uy/comoir/parada?numero=1259"
1263,"CUBA y JAPON",1263,-34.876067,-56.259939,0,"https://m.montevideo.gub.uy/comoir/parada?numero=1263"
1264,"CUBA - BERNA",1264,-34.877829,-56.259571,0,"https://m.montevideo.gub.uy/comoir/parada?numero=1264"
1265,"CUBA y PERU",1265,-34.879697,-56.259217,0,"https://m.montevideo.gub.uy/comoir/parada?numero=1265"
1266,"CUBA y CHINA",1266,-34.88134,-56.258877,0,"https://m.montevideo.gub.uy/comoir/parada?numero=1266"
1267,"CHINA - PATAGONIA",1267,-34.881835,-56.260804,0,"https://m.montevideo.gub.uy/comoir/parada?numero=1267"
1268,"CHINA - GIBRALTAR",1268,-34.882127,-56.262937,0,"https://m.montevideo.gub.uy/comoir/parada?numero=1268"
1269,"CUBA y CHINA",1269,-34.881842,-56.258693,0,"https://m.montevideo.gub.uy/comoir/parada?numero=1269"
1270,"CUBA y PERU",1270,-34.879933,-56.259093,0,"https://m.montevideo.gub.uy/comoir/parada?numero=1270"
1271,"CUBA y BERNA",1271,-34.878114,-56.259441,0,"https://m.montevideo.gub.uy/comoir/parada?numero=1271"
1272,"CUBA - JAPON",1272,-34.876376,-56.25979,0,"https://m.montevideo.gub.uy/comoir/parada?numero=1272"
1273,"BERNA - POLONIA",1273,-34.87766,-56.2571,0,"https://m.montevideo.gub.uy/comoir/parada?numero=1273"
1274,"BERNA - CUBA",1274,-34.877964,-56.259332,0,"https://m.montevideo.gub.uy/comoir/parada?numero=1274"
1275,"BERNA - PATAGONIA",1275,-34.878257,-56.261474,0,"https://m.montevideo.gub.uy/comoir/parada?numero=1275"
1277,"BERNA - BULGARIA",1277,-34.878697,-56.264743,0,"https://m.montevideo.gub.uy/comoir/parada?numero=1277"
1278,"BERNA - PATAGONIA",1278,-34.878339,-56.261809,0,"https://m.montevideo.gub.uy/comoir/parada?numero=1278"
1279,"BERNA - CUBA",1279,-34.878059,-56.259675,0,"https://m.montevideo.gub.uy/comoir/parada?numero=1279"
1280,"BERNA - POLONIA",1280,-34.877772,-56.257535,0,"https://m.montevideo.gub.uy/comoir/parada?numero=1280"
1281,"BERNA - RIO DE JANEIRO",1281,-34.877479,-56.255299,0,"https://m.montevideo.gub.uy/comoir/parada?numero=1281"
1283,"AV CARLOS MARIA RAMIREZ y CONCORDIA",1283,-34.869051,-56.239594,0,"https://m.montevideo.gub.uy/comoir/parada?numero=1283"
1284,"AV CARLOS MARIA RAMIREZ y HUMBOLDT",1284,-34.867856,-56.238135,0,"https://m.montevideo.gub.uy/comoir/parada?numero=1284"
1285,"AV CARLOS MARIA RAMIREZ y RIVERA INDARTE",1285,-34.866596,-56.236579,0,"https://m.montevideo.gub.uy/comoir/parada?numero=1285"
1286,"AV CARLOS MARIA RAMIREZ y PEDRO GIRALT",1286,-34.86528,-56.234964,0,"https://m.montevideo.gub.uy/comoir/parada?numero=1286"
1287,"AV CARLOS MARIA RAMIREZ y GRAL AGUSTIN MUÑOZ",1287,-34.863873,-56.233213,0,"https://m.montevideo.gub.uy/comoir/parada?numero=1287"
1288,"AV CARLOS MARIA RAMIREZ y REAL",1288,-34.8626,-56.231635,0,"https://m.montevideo.gub.uy/comoir/parada?numero=1288"
1289,"AV CARLOS MARIA RAMIREZ y VICENTE YAÑEZ PINZON",1289,-34.861363,-56.230132,0,"https://m.montevideo.gub.uy/comoir/parada?numero=1289"
1290,"AV CARLOS MARIA RAMIREZ y GDOR DEL PINO",1290,-34.859937,-56.228369,0,"https://m.montevideo.gub.uy/comoir/parada?numero=1290"
1291,"AV CARLOS MARIA RAMIREZ y AV LUIS BATLLE BERRES",1291,-34.858892,-56.227066,0,"https://m.montevideo.gub.uy/comoir/parada?numero=1291"
1292,"AV CARLOS MARIA RAMIREZ y DR VICENTE BASAGOITY",1292,-34.857306,-56.225125,0,"https://m.montevideo.gub.uy/comoir/parada?numero=1292"
1293,"AV CARLOS MARIA RAMIREZ y BELVEDERE",1293,-34.855752,-56.223257,0,"https://m.montevideo.gub.uy/comoir/parada?numero=1293"
1294,"AV CARLOS MARIA RAMIREZ - VICENTE BASAGOITY",1294,-34.857001,-56.225034,0,"https://m.montevideo.gub.uy/comoir/parada?numero=1294"
1295,"AV CARLOS MARIA RAMIREZ y BV MANUEL HERRERA Y OBES",1295,-34.857634,-56.225791,0,"https://m.montevideo.gub.uy/comoir/parada?numero=1295"
1296,"AV CARLOS MARIA RAMIREZ - GDOR DEL PINO",1296,-34.859609,-56.22818,0,"https://m.montevideo.gub.uy/comoir/parada?numero=1296"
1297,"AV CARLOS MARIA RAMIREZ - VICENTE YAÑEZ PINZON",1297,-34.860953,-56.229834,0,"https://m.montevideo.gub.uy/comoir/parada?numero=1297"
1298,"AV CARLOS MARIA RAMIREZ - REAL",1298,-34.862257,-56.231434,0,"https://m.montevideo.gub.uy/comoir/parada?numero=1298"
1299,"AV CARLOS MARIA RAMIREZ y CARLOS TELLIER",1299,-34.863318,-56.232758,0,"https://m.montevideo.gub.uy/comoir/parada?numero=1299"
1300,"AV CARLOS MARIA RAMIREZ - PEDRO GIRALT",1300,-34.864736,-56.234475,0,"https://m.montevideo.gub.uy/comoir/parada?numero=1300"
1301,"AV CARLOS MARIA RAMIREZ - RIVERA INDARTE",1301,-34.866164,-56.236238,0,"https://m.montevideo.gub.uy/comoir/parada?numero=1301"
1302,"AV CARLOS MARIA RAMIREZ y HUMBOLDT",1302,-34.867442,-56.237892,0,"https://m.montevideo.gub.uy/comoir/parada?numero=1302"
1303,"AV CARLOS MARIA RAMIREZ y CONCORDIA",1303,-34.869055,-56.239886,0,"https://m.montevideo.gub.uy/comoir/parada?numero=1303"
1305,"SANTA LUCIA - VITORIA",1305,-34.850903,-56.227292,0,"https://m.montevideo.gub.uy/comoir/parada?numero=1305"
1306,"SANTA LUCIA - VILLAVICENCIO",1306,-34.849611,-56.229535,0,"https://m.montevideo.gub.uy/comoir/parada?numero=1306"
1307,"SANTA LUCIA y BERNARDO DE GUZMAN",1307,-34.848459,-56.231601,0,"https://m.montevideo.gub.uy/comoir/parada?numero=1307"
1309,"SANTA LUCIA - OFELIA MACHADO BONET",1309,-34.847074,-56.234045,0,"https://m.montevideo.gub.uy/comoir/parada?numero=1309"
1310,"SANTA LUCIA - LASCANO",1310,-34.845704,-56.236448,0,"https://m.montevideo.gub.uy/comoir/parada?numero=1310"
1312,"SANTA LUCIA y CALAGUADA",1312,-34.84463,-56.238361,0,"https://m.montevideo.gub.uy/comoir/parada?numero=1312"
1313,"SANTA LUCIA y TURUBI",1313,-34.84312,-56.241068,0,"https://m.montevideo.gub.uy/comoir/parada?numero=1313"
1314,"SANTA LUCIA y CARLOS MARIA HERRERA",1314,-34.841304,-56.244139,0,"https://m.montevideo.gub.uy/comoir/parada?numero=1314"
1315,"SANTA LUCIA - CAPIATA",1315,-34.839662,-56.247069,0,"https://m.montevideo.gub.uy/comoir/parada?numero=1315"
1317,"SANTA LUCIA - TUCUMAN",1317,-34.838143,-56.249832,0,"https://m.montevideo.gub.uy/comoir/parada?numero=1317"
1318,"SANTA LUCIA y CORDOBA",1318,-34.837425,-56.250983,0,"https://m.montevideo.gub.uy/comoir/parada?numero=1318"
1319,"YUGOESLAVIA y CARLOS DE LA VEGA",1319,-34.844646,-56.245104,0,"https://m.montevideo.gub.uy/comoir/parada?numero=1319"
1326,"CNO CARLOS MARIA DE PENA y VITTORIO VENETO",1326,-34.835307,-56.240347,0,"https://m.montevideo.gub.uy/comoir/parada?numero=1326"
1327,"CNO CARLOS MARIA DE PENA y YUGOESLAVIA",1327,-34.836838,-56.237994,0,"https://m.montevideo.gub.uy/comoir/parada?numero=1327"
1328,"CNO CARLOS MARIA DE PENA y ALDAO",1328,-34.840298,-56.232185,0,"https://m.montevideo.gub.uy/comoir/parada?numero=1328"
1329,"ALDAO - IQUIQUE",1329,-34.842492,-56.231429,0,"https://m.montevideo.gub.uy/comoir/parada?numero=1329"
1330,"GRAL HORNOS y BERNARDO DE GUZMAN",1330,-34.844334,-56.22822,0,"https://m.montevideo.gub.uy/comoir/parada?numero=1330"
1332,"CARLOS DE LA VEGA - INCLUSA",1332,-34.854648,-56.227621,0,"https://m.montevideo.gub.uy/comoir/parada?numero=1332"
1333,"CARLOS DE LA VEGA y VITORIA",1333,-34.853438,-56.22974,0,"https://m.montevideo.gub.uy/comoir/parada?numero=1333"
1334,"CARLOS DE LA VEGA - ADOLFO VAILLANT",1334,-34.852311,-56.231878,0,"https://m.montevideo.gub.uy/comoir/parada?numero=1334"
1335,"CARLOS DE LA VEGA y RODOLFO RINCON",1335,-34.851024,-56.2342,0,"https://m.montevideo.gub.uy/comoir/parada?numero=1335"
1336,"CARLOS DE LA VEGA - CAMPICHUELO",1336,-34.84996,-56.236143,0,"https://m.montevideo.gub.uy/comoir/parada?numero=1336"
1337,"CARLOS DE LA VEGA - FERREIRA Y ARTIGAS",1337,-34.849272,-56.237394,0,"https://m.montevideo.gub.uy/comoir/parada?numero=1337"
1338,"CARLOS DE LA VEGA y TRIUNFO",1338,-34.84793,-56.239727,0,"https://m.montevideo.gub.uy/comoir/parada?numero=1338"
1339,"CARLOS DE LA VEGA - CORDOBES",1339,-34.847114,-56.241292,0,"https://m.montevideo.gub.uy/comoir/parada?numero=1339"
1340,"CARLOS DE LA VEGA y TURUBI",1340,-34.846201,-56.242861,0,"https://m.montevideo.gub.uy/comoir/parada?numero=1340"
1341,"CARLOS DE LA VEGA - YUGOESLAVIA",1341,-34.844991,-56.24507,0,"https://m.montevideo.gub.uy/comoir/parada?numero=1341"
1342,"CARLOS DE LA VEGA - TURUBI",1342,-34.845967,-56.243421,0,"https://m.montevideo.gub.uy/comoir/parada?numero=1342"
1343,"CARLOS DE LA VEGA - CORDOBES",1343,-34.847012,-56.24156,0,"https://m.montevideo.gub.uy/comoir/parada?numero=1343"
1344,"CARLOS DE LA VEGA - CAÑAS",1344,-34.847839,-56.240074,0,"https://m.montevideo.gub.uy/comoir/parada?numero=1344"
1345,"CARLOS DE LA VEGA y FERREIRA Y ARTIGAS",1345,-34.849127,-56.237776,0,"https://m.montevideo.gub.uy/comoir/parada?numero=1345"
1346,"CARLOS DE LA VEGA - CAMPICHUELO",1346,-34.84981,-56.236544,0,"https://m.montevideo.gub.uy/comoir/parada?numero=1346"
1347,"CARLOS DE LA VEGA - GREGORIO CAMINO",1347,-34.853318,-56.230205,0,"https://m.montevideo.gub.uy/comoir/parada?numero=1347"
1348,"CARLOS DE LA VEGA - INCLUSA",1348,-34.854404,-56.228182,0,"https://m.montevideo.gub.uy/comoir/parada?numero=1348"
1349,"VICENTE BASAGOITY - AV CARLOS MARIA RAMIREZ",1349,-34.857015,-56.225395,0,"https://m.montevideo.gub.uy/comoir/parada?numero=1349"
1350,"AV MILLAN - CALLE 3",1350,-34.82421,-56.239038,0,"https://m.montevideo.gub.uy/comoir/parada?numero=1350"
1351,"AV MILLAN y CALLE N1",1351,-34.823348,-56.240465,0,"https://m.montevideo.gub.uy/comoir/parada?numero=1351"
1353,"AV MILLAN y CIRC INT CALLE 1",1353,-34.823505,-56.240472,0,"https://m.montevideo.gub.uy/comoir/parada?numero=1353"
1354,"AV MILLAN y C INT VEHI CALLE 3",1354,-34.824313,-56.239103,0,"https://m.montevideo.gub.uy/comoir/parada?numero=1354"
1355,"RUTA NAL ACCESO RUTA 5 - MILLAN y AV MILLAN",1355,-34.82939,-56.230477,0,"https://m.montevideo.gub.uy/comoir/parada?numero=1355"
1356,"AV MILLAN y GABITO",1356,-34.831412,-56.227117,0,"https://m.montevideo.gub.uy/comoir/parada?numero=1356"
1360,"AV ISLAS CANARIAS y CORONILLA",1360,-34.841552,-56.224407,0,"https://m.montevideo.gub.uy/comoir/parada?numero=1360"
1361,"AV ISLAS CANARIAS y ALCIDES DE MARIA",1361,-34.840188,-56.226826,0,"https://m.montevideo.gub.uy/comoir/parada?numero=1361"
1362,"AV ISLAS CANARIAS y CRISTOBAL CAYETANO DE HERRERA",1362,-34.839094,-56.228773,0,"https://m.montevideo.gub.uy/comoir/parada?numero=1362"
1363,"AV ISLAS CANARIAS y TOMAS DE LA SIERRA",1363,-34.83811,-56.230475,0,"https://m.montevideo.gub.uy/comoir/parada?numero=1363"
1364,"AV ISLAS CANARIAS - PSJE JUAN GONZALEZ AMARO",1364,-34.835065,-56.235811,0,"https://m.montevideo.gub.uy/comoir/parada?numero=1364"
1365,"AV ISLAS CANARIAS y HECTOR VIGIL",1365,-34.832192,-56.240758,0,"https://m.montevideo.gub.uy/comoir/parada?numero=1365"
1366,"AV ISLAS CANARIAS y ALBERTO GOMEZ RUANO",1366,-34.830714,-56.24304,0,"https://m.montevideo.gub.uy/comoir/parada?numero=1366"
1367,"ALBERTO GOMEZ RUANO - CARMELO DE ARZADUM",1367,-34.828333,-56.241497,0,"https://m.montevideo.gub.uy/comoir/parada?numero=1367"
1368,"ALBERTO GOMEZ RUANO - RUTA NAL ACCESO RUTA 1 Y 5 MILLAN",1368,-34.827715,-56.240869,0,"https://m.montevideo.gub.uy/comoir/parada?numero=1368"
1369,"MARIA ORTICOCHEA y HECTOR VIGIL",1369,-34.828815,-56.237827,0,"https://m.montevideo.gub.uy/comoir/parada?numero=1369"
1370,"MARIA ORTICOCHEA y RUTA NAL ACCESO RUTA 1 Y 5",1370,-34.827918,-56.239339,0,"https://m.montevideo.gub.uy/comoir/parada?numero=1370"
1371,"ALBERTO GOMEZ RUANO y CARMELO DE ARZADUM",1371,-34.829218,-56.242084,0,"https://m.montevideo.gub.uy/comoir/parada?numero=1371"
1372,"ALBERTO GOMEZ RUANO - AV ISLAS CANARIAS",1372,-34.830438,-56.243305,0,"https://m.montevideo.gub.uy/comoir/parada?numero=1372"
1373,"AV ISLAS CANARIAS y PSJE 5",1373,-34.83164,-56.241761,0,"https://m.montevideo.gub.uy/comoir/parada?numero=1373"
1374,"AV ISLAS CANARIAS - PSJE JUAN GONZALEZ AMARO",1374,-34.835161,-56.235733,0,"https://m.montevideo.gub.uy/comoir/parada?numero=1374"
1375,"AV ISLAS CANARIAS y JOSE DE VERA PERDOMO",1375,-34.835839,-56.234639,0,"https://m.montevideo.gub.uy/comoir/parada?numero=1375"
1376,"AV ISLAS CANARIAS y PLA A FARAMIÑAN",1376,-34.836821,-56.232892,0,"https://m.montevideo.gub.uy/comoir/parada?numero=1376"
1377,"AV ISLAS CANARIAS - TOMAS DE LA SIERRA",1377,-34.838021,-56.230794,0,"https://m.montevideo.gub.uy/comoir/parada?numero=1377"
1378,"AV ISLAS CANARIAS - CRISTOBAL CAYETANO DE HERRERA",1378,-34.838901,-56.229268,0,"https://m.montevideo.gub.uy/comoir/parada?numero=1378"
1379,"AV ISLAS CANARIAS y ALCIDES DE MARIA",1379,-34.839972,-56.227444,0,"https://m.montevideo.gub.uy/comoir/parada?numero=1379"
1380,"AV ISLAS CANARIAS y CORONILLA",1380,-34.841345,-56.225004,0,"https://m.montevideo.gub.uy/comoir/parada?numero=1380"
1381,"AV ISLAS CANARIAS y AV GRAL EUGENIO GARZON",1381,-34.842755,-56.222466,0,"https://m.montevideo.gub.uy/comoir/parada?numero=1381"
1382,"CNO MELILLA - CNO LUIS EDUARDO PEREZ",1382,-34.81578,-56.251753,0,"https://m.montevideo.gub.uy/comoir/parada?numero=1382"
1383,"CNO MELILLA - CNO LUIS EDUARDO PEREZ",1383,-34.8157,-56.252063,0,"https://m.montevideo.gub.uy/comoir/parada?numero=1383"
1384,"MARIO ARREGUI - CALLE 1",1384,-34.821331,-56.249818,0,"https://m.montevideo.gub.uy/comoir/parada?numero=1384"
1385,"CNO LECOCQ y CALLE 4",1385,-34.82307,-56.243133,0,"https://m.montevideo.gub.uy/comoir/parada?numero=1385"
1386,"CNO LECOCQ y AV MILLAN",1386,-34.822945,-56.241838,0,"https://m.montevideo.gub.uy/comoir/parada?numero=1386"
1387,"CNO LECOCQ y ROMULO F ROSSI",1387,-34.821054,-56.238837,0,"https://m.montevideo.gub.uy/comoir/parada?numero=1387"
1388,"CNO LECOCQ y ROMULO F ROSSI",1388,-34.820987,-56.238934,0,"https://m.montevideo.gub.uy/comoir/parada?numero=1388"
1389,"CNO LECOCQ - BV JOSE BATLLE Y ORDOÑEZ",1389,-34.819026,-56.236379,0,"https://m.montevideo.gub.uy/comoir/parada?numero=1389"
1390,"BV JOSE BATLLE Y ORDOÑEZ y CNEL JOSE MARIA NAVAJAS",1390,-34.819451,-56.233861,0,"https://m.montevideo.gub.uy/comoir/parada?numero=1390"
1391,"BV JOSE BATLLE Y ORDOÑEZ y CARDENAL",1391,-34.820922,-56.231287,0,"https://m.montevideo.gub.uy/comoir/parada?numero=1391"
1392,"BV JOSE BATLLE Y ORDOÑEZ y CONFEDERADA",1392,-34.822048,-56.229479,0,"https://m.montevideo.gub.uy/comoir/parada?numero=1392"
1393,"BV JOSE BATLLE Y ORDOÑEZ y CAPITULARES",1393,-34.823762,-56.22652,0,"https://m.montevideo.gub.uy/comoir/parada?numero=1393"
1394,"BV JOSE BATLLE Y ORDOÑEZ - CARAFI",1394,-34.825327,-56.223937,0,"https://m.montevideo.gub.uy/comoir/parada?numero=1394"
1395,"CARAFI y CNO ARIEL",1395,-34.827771,-56.225629,0,"https://m.montevideo.gub.uy/comoir/parada?numero=1395"
1397,"GABITO y PIRIBEBUY",1397,-34.83045,-56.225725,0,"https://m.montevideo.gub.uy/comoir/parada?numero=1397"
1398,"AV MILLAN y JUAN BAUTISTA SAA",1398,-34.829585,-56.229876,0,"https://m.montevideo.gub.uy/comoir/parada?numero=1398"
1399,"CNO ARIEL y CARAFI",1399,-34.82804,-56.226109,0,"https://m.montevideo.gub.uy/comoir/parada?numero=1399"
1400,"CNO ARIEL y AV GRAL EUGENIO GARZON",1400,-34.83071,-56.221554,0,"https://m.montevideo.gub.uy/comoir/parada?numero=1400"
1401,"CNO ARIEL y OLAZABAL",1401,-34.828602,-56.224943,0,"https://m.montevideo.gub.uy/comoir/parada?numero=1401"
1402,"CARAFI - BV JOSE BATLLE Y ORDOÑEZ",1402,-34.825657,-56.223639,0,"https://m.montevideo.gub.uy/comoir/parada?numero=1402"
1403,"BV JOSE BATLLE Y ORDOÑEZ y CAPITULARES",1403,-34.823965,-56.225941,0,"https://m.montevideo.gub.uy/comoir/parada?numero=1403"
1404,"BV JOSE BATLLE Y ORDOÑEZ y CONFEDERADA",1404,-34.822163,-56.228795,0,"https://m.montevideo.gub.uy/comoir/parada?numero=1404"
1405,"BV JOSE BATLLE Y ORDOÑEZ y CARDENAL",1405,-34.821068,-56.230669,0,"https://m.montevideo.gub.uy/comoir/parada?numero=1405"
1406,"BV JOSE BATLLE Y ORDOÑEZ - CNEL JOSE MARIA NAVAJAS",1406,-34.819628,-56.233415,0,"https://m.montevideo.gub.uy/comoir/parada?numero=1406"
1408,"CNO GRAL MAXIMO SANTOS y DR ENRIQUE BADARACCO",1408,-34.81645,-56.232202,0,"https://m.montevideo.gub.uy/comoir/parada?numero=1408"
1412,"CNO LECOCQ - ANTONIO MARIA MARQUEZ",1412,-34.81547,-56.232257,0,"https://m.montevideo.gub.uy/comoir/parada?numero=1412"
1413,"CNO LECOCQ y CNO EDISON",1413,-34.813689,-56.230607,0,"https://m.montevideo.gub.uy/comoir/parada?numero=1413"
1415,"CNO LECOCQ - BV APARICIO SARAVIA",1415,-34.811199,-56.228247,0,"https://m.montevideo.gub.uy/comoir/parada?numero=1415"
1416,"CNO CASAVALLE - EDUARDO A RAIZ",1416,-34.809639,-56.225353,0,"https://m.montevideo.gub.uy/comoir/parada?numero=1416"
1417,"EDUARDO A RAIZ - CARVE",1417,-34.808069,-56.224588,0,"https://m.montevideo.gub.uy/comoir/parada?numero=1417"
1418,"EDUARDO A RAIZ - LANUS",1418,-34.806368,-56.22407,0,"https://m.montevideo.gub.uy/comoir/parada?numero=1418"
1419,"YEGROS - AV LEZICA",1419,-34.803087,-56.229501,0,"https://m.montevideo.gub.uy/comoir/parada?numero=1419"
1420,"YEGROS - SDA 13",1420,-34.80064,-56.228793,0,"https://m.montevideo.gub.uy/comoir/parada?numero=1420"
1421,"CNO JOSE DURAN - CALDERON DE LA BARCA",1421,-34.799747,-56.225895,0,"https://m.montevideo.gub.uy/comoir/parada?numero=1421"
1422,"CNO JOSE DURAN y PSJE PEATONAL VEHICULAR",1422,-34.798317,-56.228559,0,"https://m.montevideo.gub.uy/comoir/parada?numero=1422"
1423,"19 DE JUNIO - CALDERON DE LA BARCA",1423,-34.806353,-56.227959,0,"https://m.montevideo.gub.uy/comoir/parada?numero=1423"
1424,"CALDERON DE LA BARCA - DR VALENTIN ALVAREZ",1424,-34.808716,-56.228895,0,"https://m.montevideo.gub.uy/comoir/parada?numero=1424"
1426,"EDUARDO A RAIZ y CARVE",1426,-34.807788,-56.224607,0,"https://m.montevideo.gub.uy/comoir/parada?numero=1426"
1427,"EDUARDO A RAIZ - CNO CASAVALLE",1427,-34.809496,-56.225152,0,"https://m.montevideo.gub.uy/comoir/parada?numero=1427"
1428,"CNO LECOCQ - BV APARICIO SARAVIA",1428,-34.810644,-56.22806,0,"https://m.montevideo.gub.uy/comoir/parada?numero=1428"
1430,"CNO LECOCQ y SALAS",1430,-34.817423,-56.234103,0,"https://m.montevideo.gub.uy/comoir/parada?numero=1430"
1431,"CNO LECOCQ y SALAS",1431,-34.817548,-56.234334,0,"https://m.montevideo.gub.uy/comoir/parada?numero=1431"
1432,"CNO ARIEL y QUICUYO",1432,-34.832196,-56.219025,0,"https://m.montevideo.gub.uy/comoir/parada?numero=1432"
1433,"CNO ARIEL e IGNACIO RIVAS",1433,-34.833278,-56.217166,0,"https://m.montevideo.gub.uy/comoir/parada?numero=1433"
1435,"CNO ARIEL - CARLOS SANTURIO",1435,-34.836965,-56.210886,0,"https://m.montevideo.gub.uy/comoir/parada?numero=1435"
1436,"CNO ARIEL y CNO MOLINOS DE RAFFO",1436,-34.83793,-56.209346,0,"https://m.montevideo.gub.uy/comoir/parada?numero=1436"
1437,"CNO ARIEL y TAHIM",1437,-34.836802,-56.211092,0,"https://m.montevideo.gub.uy/comoir/parada?numero=1437"
1438,"CNO ARIEL y BELL",1438,-34.835864,-56.212611,0,"https://m.montevideo.gub.uy/comoir/parada?numero=1438"
1441,"CNO ARIEL - 28 DE FEBRERO",1441,-34.832757,-56.217839,0,"https://m.montevideo.gub.uy/comoir/parada?numero=1441"
1443,"CNO ARIEL - AV GRAL EUGENIO GARZON",1443,-34.831397,-56.220167,0,"https://m.montevideo.gub.uy/comoir/parada?numero=1443"
1446,"AV SAYAGO - ELIAS REGULES",1446,-34.83169,-56.214591,0,"https://m.montevideo.gub.uy/comoir/parada?numero=1446"
1447,"AV SAYAGO - OLEGARIO ANDRADE",1447,-34.830287,-56.212227,0,"https://m.montevideo.gub.uy/comoir/parada?numero=1447"
1448,"AV SAYAGO - CNO GRAL MAXIMO SANTOS",1448,-34.829479,-56.210308,0,"https://m.montevideo.gub.uy/comoir/parada?numero=1448"
1449,"AV SAYAGO - CNO GRAL MAXIMO SANTOS",1449,-34.828031,-56.208904,0,"https://m.montevideo.gub.uy/comoir/parada?numero=1449"
1450,"AV SAYAGO y CNO EDISON",1450,-34.827019,-56.207555,0,"https://m.montevideo.gub.uy/comoir/parada?numero=1450"
1457,"AV SAYAGO - CNO GRAL MAXIMO SANTOS",1457,-34.829271,-56.210066,0,"https://m.montevideo.gub.uy/comoir/parada?numero=1457"
1458,"AV SAYAGO - OLEGARIO ANDRADE",1458,-34.830114,-56.211989,0,"https://m.montevideo.gub.uy/comoir/parada?numero=1458"
1459,"AV SAYAGO - CERRO",1459,-34.831515,-56.214625,0,"https://m.montevideo.gub.uy/comoir/parada?numero=1459"
1460,"AV SAYAGO - CNO ARIEL",1460,-34.833432,-56.215846,0,"https://m.montevideo.gub.uy/comoir/parada?numero=1460"
1461,"AV SAYAGO - AV MILLAN",1461,-34.836848,-56.217268,0,"https://m.montevideo.gub.uy/comoir/parada?numero=1461"
1463,"AV MILLAN - BELL",1463,-34.83901,-56.214125,0,"https://m.montevideo.gub.uy/comoir/parada?numero=1463"
1464,"AV MILLAN y BERNARDINO GUAS",1464,-34.839928,-56.212562,0,"https://m.montevideo.gub.uy/comoir/parada?numero=1464"
1465,"AV MILLAN - BENITO ALVAREZ",1465,-34.841094,-56.210563,0,"https://m.montevideo.gub.uy/comoir/parada?numero=1465"
1466,"AV MILLAN y CNO MOLINOS DE RAFFO",1466,-34.84207,-56.209004,0,"https://m.montevideo.gub.uy/comoir/parada?numero=1466"
1467,"AV MILLAN - LAS VIOLETAS",1467,-34.843485,-56.20661,0,"https://m.montevideo.gub.uy/comoir/parada?numero=1467"
1468,"AV MILLAN y CNO CORONEL RAIZ",1468,-34.845295,-56.20366,0,"https://m.montevideo.gub.uy/comoir/parada?numero=1468"
1469,"AV MILLAN - LORETO GOMENSORO",1469,-34.846421,-56.201744,0,"https://m.montevideo.gub.uy/comoir/parada?numero=1469"
1470,"AV MILLAN y CLEMENCEAU",1470,-34.847638,-56.199736,0,"https://m.montevideo.gub.uy/comoir/parada?numero=1470"
1471,"AV MILLAN - CNO CASTRO",1471,-34.849389,-56.198561,0,"https://m.montevideo.gub.uy/comoir/parada?numero=1471"
1472,"AV MILLAN y RBLA COSTANERA FRANCISCO LAVALLEJA",1472,-34.8528,-56.197407,0,"https://m.montevideo.gub.uy/comoir/parada?numero=1472"
1474,"AV MILLAN y REYES",1474,-34.859679,-56.195414,0,"https://m.montevideo.gub.uy/comoir/parada?numero=1474"
1475,"AV MILLAN y MICENAS",1475,-34.86195,-56.193839,0,"https://m.montevideo.gub.uy/comoir/parada?numero=1475"
1476,"AV MILLAN y DR CARLOS VAZ FERREIRA",1476,-34.863894,-56.193091,0,"https://m.montevideo.gub.uy/comoir/parada?numero=1476"
1477,"AV MILLAN y CISPLATINA",1477,-34.865807,-56.192554,0,"https://m.montevideo.gub.uy/comoir/parada?numero=1477"
1478,"AV MILLAN y PASCUAL RUIZ HUIDOBRO",1478,-34.869028,-56.191736,0,"https://m.montevideo.gub.uy/comoir/parada?numero=1478"
1479,"AV MILLAN y GRITO DE ASENCIO",1479,-34.87183,-56.190027,0,"https://m.montevideo.gub.uy/comoir/parada?numero=1479"
1480,"AV MILLAN y SITIO GRANDE",1480,-34.873903,-56.188891,0,"https://m.montevideo.gub.uy/comoir/parada?numero=1480"
1481,"AV MILLAN - DR EVARISTO CIGANDA",1481,-34.875656,-56.187911,0,"https://m.montevideo.gub.uy/comoir/parada?numero=1481"
1482,"AV MILLAN - CONCEPCION ARENAL",1482,-34.878508,-56.187373,0,"https://m.montevideo.gub.uy/comoir/parada?numero=1482"
1483,"AV MILLAN y GRAL JOSE MARIA LUNA",1483,-34.880929,-56.187742,0,"https://m.montevideo.gub.uy/comoir/parada?numero=1483"
1484,"ANGEL SALVO y CARLOS DE LA VEGA",1484,-34.861948,-56.215506,0,"https://m.montevideo.gub.uy/comoir/parada?numero=1484"
1485,"ANGEL SALVO y BV MANUEL HERRERA Y OBES",1485,-34.86303,-56.216793,0,"https://m.montevideo.gub.uy/comoir/parada?numero=1485"
1487,"ANGEL SALVO y CAYETANO RIVAS",1487,-34.864504,-56.218562,0,"https://m.montevideo.gub.uy/comoir/parada?numero=1487"
1488,"CAYETANO RIVAS - ANGEL SALVO",1488,-34.864203,-56.218326,0,"https://m.montevideo.gub.uy/comoir/parada?numero=1488"
1489,"ANGEL SALVO y BV MANUEL HERRERA Y OBES",1489,-34.863695,-56.217309,0,"https://m.montevideo.gub.uy/comoir/parada?numero=1489"
1490,"ANGEL SALVO - CARLOS DE LA VEGA",1490,-34.861865,-56.215207,0,"https://m.montevideo.gub.uy/comoir/parada?numero=1490"
1491,"FRATERNIDAD - LUIS DE LA PEÑA",1491,-34.863841,-56.220236,0,"https://m.montevideo.gub.uy/comoir/parada?numero=1491"
1492,"FRATERNIDAD - EMILIO ROMERO",1492,-34.862543,-56.221788,0,"https://m.montevideo.gub.uy/comoir/parada?numero=1492"
1494,"DR MARTIN BERINDUAGUE - CONCILIACION",1494,-34.862345,-56.223427,0,"https://m.montevideo.gub.uy/comoir/parada?numero=1494"
1495,"DR MARTIN BERINDUAGUE y PEDRO CELESTINO BAUZA",1495,-34.863561,-56.224942,0,"https://m.montevideo.gub.uy/comoir/parada?numero=1495"
1496,"DR MARTIN BERINDUAGUE y AMEGHINO",1496,-34.864814,-56.226488,0,"https://m.montevideo.gub.uy/comoir/parada?numero=1496"
1497,"DR MARTIN BERINDUAGUE y CARLOS TELLIER",1497,-34.866174,-56.228178,0,"https://m.montevideo.gub.uy/comoir/parada?numero=1497"
1498,"DR MARTIN BERINDUAGUE e HILARIO ASCASUBI",1498,-34.867432,-56.229718,0,"https://m.montevideo.gub.uy/comoir/parada?numero=1498"
1499,"DR MARTIN BERINDUAGUE - JOSE CASTRO",1499,-34.868767,-56.231314,0,"https://m.montevideo.gub.uy/comoir/parada?numero=1499"
1500,"DR MARTIN BERINDUAGUE y HEREDIA",1500,-34.869968,-56.232828,0,"https://m.montevideo.gub.uy/comoir/parada?numero=1500"
1501,"HUMBOLDT y EMILIO ROMERO",1501,-34.871397,-56.233512,0,"https://m.montevideo.gub.uy/comoir/parada?numero=1501"
1502,"EMILIO ROMERO y HUMBOLDT",1502,-34.871425,-56.232772,0,"https://m.montevideo.gub.uy/comoir/parada?numero=1502"
1503,"EMILIO ROMERO y JOSE CASTRO",1503,-34.869858,-56.230927,0,"https://m.montevideo.gub.uy/comoir/parada?numero=1503"
1504,"EMILIO ROMERO - HILARIO ASCASUBI",1504,-34.868493,-56.229271,0,"https://m.montevideo.gub.uy/comoir/parada?numero=1504"
